<?xml version="1.0" encoding="UTF-8"?>
<markers>
	<marker name="YellowWorking" lat="43.5227347" lng="5.4507946" category="coworking" address="7 BIS AVENUE SAINT-JEROME" city="Aix en Provence" postal="13100" country="FR" listed="true" featured="true" featuresUrl0="wifi.png" featuresUrl1="" featuresUrl2="drinks.png" featuresUrl3="" featuresUrl4="" features="Espace cuisine, Casier sécurisé, Thé Café, Imprimante, Wifi, " description="L’espace de coworking oeuvre en ce sens afin de proposer une atmosphère professionnelle propice à l’échange et à la rencontre. Yelloworking, c’est aussi du sport sur son lieu de travail, des conférences, des formations et des moments conviviaux." logo="logo.png" favoritePicture="01.jpg"/><marker name="Mutualab" lat="50.6296016" lng="3.0617998" category="coworking" address="19 rue Nicolas Leblanc" city="Lille" postal="59000" country="FR" listed="true" featured="true" featuresUrl0="wifi.png" featuresUrl1="" featuresUrl2="drinks.png" featuresUrl3="" featuresUrl4="" features="Espace cuisine, Casier sécurisé, Thé Café, Imprimante, Wifi, " description="CoworkingLille est une communauté de gens, de talents, d'indépendants, de tous bords, de tous horizons, qui se rassemblent autour d'un lieu (Mutualab) pour travailler, collaborer, échanger et innover." logo="logo.png" favoritePicture="01.jpg"/><marker name="Espace" lat="48.879543" lng="2.3270241" category="coworking" address="rue d amsterdam" city="Paris" postal="75015" country="FR" listed="true" featured="true" featuresUrl0="wifi.png" featuresUrl1="" featuresUrl2="drinks.png" featuresUrl3="" featuresUrl4="" features="Espace cuisine, Casier sécurisé, Thé Café, Imprimante, Wifi, " description="Ceci est la description d'un espace de coworking" logo="" favoritePicture=""/>
	<marker name="CRECHE COLLECTIVE 11, RUE MENDELSSOHN" lat="48.85534030" lng="2.41123100" category="Creche" address="RUE MENDELSSOHN" city="Paris" postal="75020" country="FR" featured="true" features=""/><marker name="CRECHE COLLECTIVE 124/130 BD DE MENILMONTANT" lat="48.86593170" lng="2.38414620" category="Creche" address="BOULEVARD DE MENILMONTANT" city="Paris" postal="75020" country="FR" featured="true" features=""/><marker name="CRECHE COLLECTIVE 147-149, BOULEVARD DAVOUT" lat="48.85896080" lng="2.40956750" category="Creche" address="BOULEVARD DAVOUT" city="Paris" postal="75020" country="FR" featured="true" features=""/><marker name="CRECHE COLLECTIVE 8, RUE DES LYANES" lat="48.86306820" lng="2.40587280" category="Creche" address="RUE DES LYANES" city="Paris" postal="75020" country="FR" featured="true" features=""/><marker name="CRECHE COLLECTIVE 15, RUE BARDINET" lat="48.83045240" lng="2.31677230" category="Creche" address="RUE BARDINET" city="Paris" postal="75014" country="FR" featured="true" features=""/><marker name="CRECHE COLLECTIVE 28, RUE HIPPOLYTE MAINDRON" lat="48.83139710" lng="2.32159760" category="Creche" address="RUE HIPPOLYTE MAINDRON" city="Paris" postal="75014" country="FR" featured="true" features=""/><marker name="HALTE-CRECHE 3, AVENUE DE LA PORTE DE VANVES" lat="48.82644610" lng="2.30558780" category="Creche" address="RUE MAURICE NOGUES" city="Paris" postal="75014" country="FR" featured="true" features=""/><marker name="CRECHE COLLECTIVE 1, RUE JULES DUPRE" lat="48.83072410" lng="2.29685550" category="Creche" address="RUE JULES DUPRE" city="Paris" postal="75015" country="FR" featured="true" features=""/><marker name="CRECHE COLLECTIVE 10, VILLA FREDERIC MISTRAL" lat="48.83802720" lng="2.28711390" category="Creche" address="RUE LECOURBE" city="Paris" postal="75015" country="FR" featured="true" features=""/><marker name="CRECHE COLLECTIVE 13, RUE CAUCHY" lat="48.84294440" lng="2.27622590" category="Creche" address="RUE CAUCHY" city="Paris" postal="75015" country="FR" featured="true" features=""/><marker name="CRECHE COLLECTIVE 31, RUE SANTOS DUMONT" lat="48.83281100" lng="2.30490300" category="Creche" address="RUE SANTOS-DUMONT" city="Paris" postal="75015" country="FR" featured="true" features=""/><marker name="CRECHE COLLECTIVE 59, AVENUE EMILE ZOLA" lat="48.84668530" lng="2.28404840" category="Creche" address="AVENUE EMILE ZOLA" city="Paris" postal="75015" country="FR" featured="true" features=""/><marker name="CRECHE FAMILIALE 16, ALLEE DES FRERES VOISIN" lat="48.82943480" lng="2.27216570" category="Creche" address="ALLEE DES FRERES VOISIN" city="Paris" postal="75015" country="FR" featured="true" features=""/><marker name="CRECHE COLLECTIVE 75 VERSAILLES" lat="48.84733070" lng="2.27364720" category="Creche" address="AVENUE DE VERSAILLES" city="Paris" postal="75016" country="FR" featured="true" features=""/><marker name="MINI CRECHE 8, RUE D ANKARA - ART. 30 (CRESCENDO)" lat="48.85493690" lng="2.28317430" category="Creche" address="RUE D' ANKARA" city="Paris" postal="75016" country="FR" featured="true" features=""/><marker name="SECTION DE CRECHE FAMILIALE 128, RUE DE LONGCHAMP" lat="48.86721310" lng="2.27826760" category="Creche" address="RUE DE LONGCHAMP" city="Paris" postal="75016" country="FR" featured="true" features=""/><marker name="CRECHE COLLECTIVE 17, RUE PIERRE PICARD" lat="48.88479620" lng="2.34493560" category="Creche" address="RUE PIERRE PICARD" city="Paris" postal="75018" country="FR" featured="true" features=""/><marker name="CRECHE COLLECTIVE 2, RUE DES AMIRAUX" lat="48.89438440" lng="2.35202270" category="Creche" address="RUE DES AMIRAUX" city="Paris" postal="75018" country="FR" featured="true" features=""/><marker name="CRECHE COLLECTIVE 23-27, RUE DE L EVANGILE" lat="48.89328380" lng="2.36355520" category="Creche" address="RUE DE L' EVANGILE" city="Paris" postal="75018" country="FR" featured="true" features=""/><marker name="CRECHE COLLECTIVE 59, RUE DE LA GOUTTE D OR" lat="48.88510410" lng="2.35056720" category="Creche" address="RUE DE LA GOUTTE D'OR" city="Paris" postal="75018" country="FR" featured="true" features=""/><marker name="CRECHE COLLECTIVE 1, PLACE PIERRE MAC ORLAN" lat="48.89533590" lng="2.36220320" category="Creche" address="PLACE PIERRE MAC ORLAN" city="Paris" postal="75018" country="FR" featured="true" features=""/><marker name="CRECHE COLLECTIVE 12, RUE GASTON REBUFFAT" lat="48.88466460" lng="2.36857790" category="Creche" address="RUE GASTON REBUFFAT" city="Paris" postal="75019" country="FR" featured="true" features=""/><marker name="CRECHE COLLECTIVE 15-19, COURS DU 7E ART" lat="48.87823980" lng="2.38561490" category="Creche" address="COURS DU SEPTIEME ART" city="Paris" postal="75019" country="FR" featured="true" features=""/><marker name="CRECHE COLLECTIVE 168, AVENUE JEAN JAURES" lat="48.88753130" lng="2.38833380" category="Creche" address="AVENUE JEAN JAURES" city="Paris" postal="75019" country="FR" featured="true" features=""/><marker name="CRECHE COLLECTIVE 12 CITE LEPAGE" lat="48.88055930" lng="2.37088830" category="Creche" address="CITE LEPAGE" city="Paris" postal="75019" country="FR" featured="true" features=""/><marker name="CRECHE COLLECTIVE 171, RUE DE CRIMEE" lat="48.88967260" lng="2.37788360" category="Creche" address="RUE DE CRIMEE" city="Paris" postal="75019" country="FR" featured="true" features=""/><marker name="MINI CRECHE 36 BIS, QUAI DE LA LOIRE" lat="48.88502860" lng="2.37412630" category="Creche" address="QUAI DE LA LOIRE" city="Paris" postal="75019" country="FR" featured="true" features=""/><marker name="CRECHE COLLECTIVE 4, PLACE MARCEL ACHARD" lat="48.87375990" lng="2.37644450" category="Creche" address="PLACE MARCEL ACHARD" city="Paris" postal="75019" country="FR" featured="true" features=""/><marker name="MINI CRECHE 18, RUE LABOIS-ROUILLON" lat="48.89377130" lng="2.37191800" category="Creche" address="RUE LABOIS-ROUILLON" city="Paris" postal="75019" country="FR" featured="true" features=""/><marker name="CRECHE COLLECTIVE 19 BIS, RUE PELLEPORT" lat="48.86296420" lng="2.40452170" category="Creche" address="RUE PELLEPORT" city="Paris" postal="75020" country="FR" featured="true" features=""/><marker name="CRECHE COLLECTIVE 211, AVENUE GAMBETTA" lat="48.87355470" lng="2.40509990" category="Creche" address="AVENUE GAMBETTA" city="Paris" postal="75020" country="FR" featured="true" features=""/><marker name="CRECHE COLLECTIVE 7, RUE DE LA MARE" lat="48.86924220" lng="2.38825620" category="Creche" address="RUE DE LA MARE" city="Paris" postal="75020" country="FR" featured="true" features=""/><marker name="CRECHE FAMILIALE 3, RUE REYNALDO HAHN" lat="48.84941320" lng="2.41207740" category="Creche" address="RUE REYNALDO HAHN" city="Paris" postal="75020" country="FR" featured="true" features=""/><marker name="CRECHE COLLECTIVE 7, IMPASSE MONPLAISIR" lat="48.86580730" lng="2.38613430" category="Creche" address="PASSAGE MONPLAISIR" city="Paris" postal="75020" country="FR" featured="true" features=""/><marker name="CRECHE COLLECTIVE 15, COUR DEBILLE" lat="48.85583820" lng="2.37984310" category="Creche" address="COUR DEBILLE" city="Paris" postal="75011" country="FR" featured="true" features=""/><marker name="CRECHE COLLECTIVE 38, RUE SAINT BERNARD" lat="48.85283600" lng="2.38097180" category="Creche" address="RUE SAINT-BERNARD" city="Paris" postal="75011" country="FR" featured="true" features=""/><marker name="CRECHE COLLECTIVE CITE PROST 30 RUE CHANZY" lat="48.85272010" lng="2.38555000" category="Creche" address="RUE CHANZY" city="Paris" postal="75011" country="FR" featured="true" features=""/><marker name="CRECHE COLLECTIVE 6, RUE DES JARDINIERS" lat="48.83414720" lng="2.39600600" category="Creche" address="RUE DES JARDINIERS" city="Paris" postal="75012" country="FR" featured="true" features=""/><marker name="CRECHE COLLECTIVE 7, RUE DE COTTE" lat="48.84871770" lng="2.37704220" category="Creche" address="RUE DE COTTE" city="Paris" postal="75012" country="FR" featured="true" features=""/><marker name="MINI CRECHE 4, RUE DE TOUL" lat="48.83772120" lng="2.40246950" category="Creche" address="RUE DE TOUL" city="Paris" postal="75012" country="FR" featured="true" features=""/><marker name="CRECHE COLLECTIVE 18 RUE DU MOULIN DE LA POINTE" lat="48.82377430" lng="2.35679900" category="Creche" address="RUE DU MOULIN DE LA POINTE" city="Paris" postal="75013" country="FR" featured="true" features=""/><marker name="CRECHE COLLECTIVE 66 RUE PASCAL" lat="48.83374960" lng="2.34732680" category="Creche" address="RUE PASCAL" city="Paris" postal="75013" country="FR" featured="true" features=""/><marker name="CRECHE FAMILIALE 49 BD MASSENA" lat="48.82281590" lng="2.37329390" category="Creche" address="BOULEVARD MASSENA" city="Paris" postal="75013" country="FR" featured="true" features=""/><marker name="HALTE-CRECHE 28, RUE BROUSSAIS" lat="48.82895000" lng="2.33646080" category="Creche" address="RUE BROUSSAIS" city="Paris" postal="75014" country="FR" featured="true" features=""/><marker name="CRECHE COLLECTIVE 131, RUE FALGUIERE" lat="48.83709190" lng="2.31068430" category="Creche" address="RUE FALGUIERE" city="Paris" postal="75015" country="FR" featured="true" features=""/><marker name="CRECHE COLLECTIVE 15, RUE MODIGLIANI" lat="48.83857800" lng="2.28013200" category="Creche" address="RUE MODIGLIANI" city="Paris" postal="75015" country="FR" featured="true" features=""/><marker name="MINI CRECHE 193 QUATER, RUE SAINT CHARLES" lat="48.84058380" lng="2.28042880" category="Creche" address="RUE SAINT-CHARLES" city="Paris" postal="75015" country="FR" featured="true" features=""/><marker name="CRECHE COLLECTIVE 71, AVENUE FELIX FAURE - COTE RUE" lat="48.84015830" lng="2.28567270" category="Creche" address="AVENUE FELIX FAURE" city="Paris" postal="75015" country="FR" featured="true" features=""/><marker name="CRECHE FAMILIALE (SECTION) 15 RUE MODIGLIANI" lat="48.83857800" lng="2.28013200" category="Creche" address="RUE MODIGLIANI" city="Paris" postal="75015" country="FR" featured="true" features=""/><marker name="CRECHE COLLECTIVE 6, RUE DU COMMANDANT SCHLOESING" lat="48.86185990" lng="2.28449600" category="Creche" address="RUE DU COMMANDANT SCHLOESING" city="Paris" postal="75016" country="FR" featured="true" features=""/><marker name="CRECHE COLLECTIVE 78, RUE LAURISTON" lat="48.86774560" lng="2.28836980" category="Creche" address="RUE LAURISTON" city="Paris" postal="75016" country="FR" featured="true" features=""/><marker name="CRECHE COLLECTIVE 9-11 RUE ERLANGER" lat="48.84740410" lng="2.26193690" category="Creche" address="RUE ERLANGER" city="Paris" postal="75016" country="FR" featured="true" features=""/><marker name="CRECHE COLLECTIVE 35, RUE DAUTANCOURT" lat="48.89051420" lng="2.32553840" category="Creche" address="RUE DAUTANCOURT" city="Paris" postal="75017" country="FR" featured="true" features=""/><marker name="MINI CRECHE 158, RUE LEGENDRE" lat="48.89061590" lng="2.32475770" category="Creche" address="RUE LEGENDRE" city="Paris" postal="75017" country="FR" featured="true" features=""/><marker name="CRECHE COLLECTIVE 20 BIS, RUE DES BATIGNOLLES" lat="48.88455270" lng="2.32154350" category="Creche" address="RUE DES BATIGNOLLES" city="Paris" postal="75017" country="FR" featured="true" features=""/><marker name="CRECHE COLLECTIVE 16, RUE ROBERT HOUDIN" lat="48.87080290" lng="2.37548530" category="Creche" address="RUE ROBERT-HOUDIN" city="Paris" postal="75011" country="FR" featured="true" features=""/><marker name="CRECHE COLLECTIVE 14, RUE DURANTI" lat="48.86085500" lng="2.38486630" category="Creche" address="RUE DURANTI" city="Paris" postal="75011" country="FR" featured="true" features=""/><marker name="CRECHE COLLECTIVE 4, RUE MARIE LAURENCIN" lat="48.84065980" lng="2.40611050" category="Creche" address="RUE MARIE LAURENCIN" city="Paris" postal="75012" country="FR" featured="true" features=""/><marker name="CRECHE COLLECTIVE 17, RUE LAMBLARDIE" lat="48.84058450" lng="2.39784110" category="Creche" address="RUE LAMBLARDIE" city="Paris" postal="75012" country="FR" featured="true" features=""/><marker name="CRECHE COLLECTIVE 8, PLACE DU BATAILLON DU PACIFIQUE 1ER ETAGE" lat="48.85661400" lng="2.35222190" category="Creche" address="PLACE DU BATAILLON DU PACIFIQUE" city="Paris" postal="75012" country="FR" featured="true" features=""/><marker name="CRECHE COLLECTIVE 295, RUE DE CHARENTON" lat="48.83444640" lng="2.39413140" category="Creche" address="RUE DE CHARENTON" city="Paris" postal="75012" country="FR" featured="true" features=""/><marker name="CRECHE COLLECTIVE 6, RUE EUGENIE EBOUE" lat="48.84583400" lng="2.38529830" category="Creche" address="RUE EUGENIE EBOUE" city="Paris" postal="75012" country="FR" featured="true" features=""/><marker name="CRECHE COLLECTIVE 61, RUE DU RENDEZ-VOUS" lat="48.84643670" lng="2.40139210" category="Creche" address="RUE DU RENDEZ-VOUS" city="Paris" postal="75012" country="FR" featured="true" features=""/><marker name="CRECHE FAMILIALE 43, RUE DE PICPUS" lat="48.84362820" lng="2.39682490" category="Creche" address="RUE DE PICPUS" city="Paris" postal="75012" country="FR" featured="true" features=""/><marker name="CRECHE COLLECTIVE 31 RUE DUNOIS" lat="48.83105140" lng="2.36932410" category="Creche" address="RUE DUNOIS" city="Paris" postal="75013" country="FR" featured="true" features=""/><marker name="CRECHE COLLECTIVE 1 RUE EUGENE OUDINE" lat="48.82611210" lng="2.37757930" category="Creche" address="RUE EUGENE OUDINE" city="Paris" postal="75013" country="FR" featured="true" features=""/><marker name="CRECHE COLLECTIVE 158 RUE DE TOLBIAC" lat="48.82599560" lng="2.35365980" category="Creche" address="RUE DE TOLBIAC" city="Paris" postal="75013" country="FR" featured="true" features=""/><marker name="CRECHE COLLECTIVE 19 RUE JEAN FAUTRIER" lat="48.82580760" lng="2.37180200" category="Creche" address="RUE JEAN FAUTRIER" city="Paris" postal="75013" country="FR" featured="true" features=""/><marker name="CRECHE COLLECTIVE 33B RUE DES LONGUES RAIES" lat="48.82117350" lng="2.34733250" category="Creche" address="RUE DES LONGUES RAIES" city="Paris" postal="75013" country="FR" featured="true" features=""/><marker name="CRECHE COLLECTIVE 8-10, RUE THOREL" lat="48.86962250" lng="2.34901130" category="Creche" address="RUE THOREL" city="Paris" postal="75002" country="FR" featured="true" features=""/><marker name="CRECHE COLLECTIVE 6-8, PLACE DES MAGASINS DE L OPERA COMIQUE" lat="48.85661400" lng="2.35222190" category="Creche" address="PLACE DES MAGASINS DE L'OPERA COMIQUE" city="Paris" postal="75017" country="FR" featured="true" features=""/><marker name="CRECHE COLLECTIVE 16, AVENUE BRUNETIERE" lat="48.88998000" lng="2.30029540" category="Creche" address="AVENUE BRUNETIERE" city="Paris" postal="75017" country="FR" featured="true" features=""/><marker name="CRECHE COLLECTIVE 37, RUE BAYEN" lat="48.88016480" lng="2.29401000" category="Creche" address="RUE BAYEN" city="Paris" postal="75017" country="FR" featured="true" features=""/><marker name="CRECHE COLLECTIVE 84 M, BOULEVARD PEREIRE" lat="48.88667770" lng="2.30043240" category="Creche" address="BOULEVARD PEREIRE" city="Paris" postal="75017" country="FR" featured="true" features=""/><marker name="MINI CRECHE 223 M, BOULEVARD PEREIRE" lat="48.88023890" lng="2.28895420" category="Creche" address="BOULEVARD PEREIRE" city="Paris" postal="75017" country="FR" featured="true" features=""/><marker name="CRECHE COLLECTIVE 16, RUE DE L ABREUVOIR" lat="48.88847100" lng="2.33841070" category="Creche" address="RUE DE L' ABREUVOIR" city="Paris" postal="75018" country="FR" featured="true" features=""/><marker name="CRECHE COLLECTIVE 126-130, RUE MARCADET" lat="48.89138330" lng="2.34035670" category="Creche" address="RUE MARCADET" city="Paris" postal="75018" country="FR" featured="true" features=""/><marker name="CRECHE COLLECTIVE 76, RUE JOSEPH DE MAISTRE" lat="48.89190330" lng="2.33081780" category="Creche" address="RUE JOSEPH DE MAISTRE" city="Paris" postal="75018" country="FR" featured="true" features=""/><marker name="CRECHE COLLECTIVE 15-19, AVENUE DE LA PORTE MONTMARTRE" lat="48.89914190" lng="2.33626040" category="Creche" address="AVENUE DE LA PORTE DE MONTMARTRE" city="Paris" postal="75018" country="FR" featured="true" features=""/><marker name="CRECHE FAMILIALE 20, RUE BOINOD" lat="48.89288160" lng="2.35060550" category="Creche" address="RUE BOINOD" city="Paris" postal="75018" country="FR" featured="true" features=""/><marker name="CRECHE COLLECTIVE 1 BIS, PASSAGE DE VERDUN" lat="48.88806250" lng="2.38100630" category="Creche" address="PASSAGE DE VERDUN" city="Paris" postal="75019" country="FR" featured="true" features=""/><marker name="CRECHE COLLECTIVE 16 SQUARE DUNOIS" lat="48.83352770" lng="2.36671610" category="Creche" address="SQUARE DUNOIS" city="Paris" postal="75013" country="FR" featured="true" features=""/><marker name="CRECHE COLLECTIVE 14, RUE JULES GUESDE" lat="48.83681820" lng="2.32066810" category="Creche" address="RUE JULES GUESDE" city="Paris" postal="75014" country="FR" featured="true" features=""/><marker name="CRECHE FAMILIALE 44, RUE GRENETA" lat="48.86537110" lng="2.34855990" category="Creche" address="RUE GRENETA" city="Paris" postal="75002" country="FR" featured="true" features=""/><marker name="CRECHE COLLECTIVE 6, RUE RAMBUTEAU" lat="48.86029930" lng="2.35627480" category="Creche" address="RUE RAMBUTEAU" city="Paris" postal="75003" country="FR" featured="true" features=""/><marker name="MINI CRECHE 1-3, RUE BASSOMPIERRE" lat="48.85075000" lng="2.36710110" category="Creche" address="RUE BASSOMPIERRE" city="Paris" postal="75004" country="FR" featured="true" features=""/><marker name="CRECHE COLLECTIVE 11, RUE CENSIER" lat="48.84087230" lng="2.35484630" category="Creche" address="RUE CENSIER" city="Paris" postal="75005" country="FR" featured="true" features=""/><marker name="CRECHE COLLECTIVE 4, RUE LITTRE" lat="48.84550100" lng="2.32380960" category="Creche" address="RUE LITTRE" city="Paris" postal="75006" country="FR" featured="true" features=""/><marker name="CRECHE COLLECTIVE 1, RUE OUDINOT" lat="48.85043350" lng="2.31928340" category="Creche" address="RUE OUDINOT" city="Paris" postal="75007" country="FR" featured="true" features=""/><marker name="CRECHE COLLECTIVE 145, RUE DE L UNIVERSITE" lat="48.86107210" lng="2.30638540" category="Creche" address="RUE DE L' UNIVERSITE" city="Paris" postal="75007" country="FR" featured="true" features=""/><marker name="CRECHE FAMILIALE 145, RUE DE L UNIVERSITE" lat="48.86107210" lng="2.30638540" category="Creche" address="RUE DE L' UNIVERSITE" city="Paris" postal="75007" country="FR" featured="true" features=""/><marker name="CRECHE COLLECTIVE 132, RUE RAMBUTEAU" lat="48.86256810" lng="2.34688310" category="Creche" address="RUE RAMBUTEAU" city="Paris" postal="75001" country="FR" featured="true" features=""/><marker name="CRECHE COLLECTIVE 16, RUE DE LA PERLE" lat="48.85961710" lng="2.36169060" category="Creche" address="RUE DE LA PERLE" city="Paris" postal="75003" country="FR" featured="true" features=""/><marker name="CRECHE COLLECTIVE 22 BIS, RUE DES FRANCS BOURGEOIS" lat="48.85795910" lng="2.36037370" category="Creche" address="RUE DES FRANCS BOURGEOIS" city="Paris" postal="75003" country="FR" featured="true" features=""/><marker name="CRECHE COLLECTIVE 21, RUE DE BRANTOME" lat="48.86243800" lng="2.35309700" category="Creche" address="RUE BRANTOME" city="Paris" postal="75003" country="FR" featured="true" features=""/><marker name="CRECHE COLLECTIVE 3, RUE LOBAU - HOTEL DE VILLE" lat="48.85570920" lng="2.35308370" category="Creche" address="RUE DE LOBAU" city="Paris" postal="75004" country="FR" featured="true" features=""/><marker name="CRECHE COLLECTIVE 7-9, RUE DES BARRES" lat="48.85495590" lng="2.35509740" category="Creche" address="RUE DES BARRES" city="Paris" postal="75004" country="FR" featured="true" features=""/><marker name="CRECHE FAMILIALE 2 RUE LARREY" lat="48.84142310" lng="2.35398640" category="Creche" address="RUE LARREY" city="Paris" postal="75005" country="FR" featured="true" features=""/><marker name="CRECHE COLLECTIVE 10, RUE SAINT MEDARD" lat="48.84363730" lng="2.35092620" category="Creche" address="RUE SAINT-MEDARD" city="Paris" postal="75005" country="FR" featured="true" features=""/><marker name="CRECHE COLLECTIVE 11, RUE VALETTE" lat="48.84754530" lng="2.34686980" category="Creche" address="RUE VALETTE" city="Paris" postal="75005" country="FR" featured="true" features=""/><marker name="CRECHE COLLECTIVE 6-12, RUE DES PRÊTRES SAINT SEVERIN" lat="48.85212890" lng="2.34522330" category="Creche" address="RUE DES PRETRES SAINT-SEVERIN" city="Paris" postal="75005" country="FR" featured="true" features=""/><marker name="CRECHE COLLECTIVE 7, RUE DES LYONNAIS" lat="48.83826010" lng="2.34681450" category="Creche" address="RUE DES LYONNAIS" city="Paris" postal="75005" country="FR" featured="true" features=""/><marker name="CRECHE COLLECTIVE 21, RUE GARANCIERE" lat="48.84926090" lng="2.33601280" category="Creche" address="RUE GARANCIERE" city="Paris" postal="75006" country="FR" featured="true" features=""/><marker name="CRECHE COLLECTIVE 164 BIS, RUE DE GRENELLE" lat="48.85805220" lng="2.30896620" category="Creche" address="RUE DE GRENELLE" city="Paris" postal="75007" country="FR" featured="true" features=""/><marker name="CRECHE COLLECTIVE 5, RUE MALEVILLE" lat="48.87731430" lng="2.31450680" category="Creche" address="RUE MALEVILLE" city="Paris" postal="75008" country="FR" featured="true" features=""/><marker name="CRECHE COLLECTIVE 9, RUE DE LA PEPINIERE - ART 30 OEUVRE CROIX ST SIMON" lat="48.87507310" lng="2.32344490" category="Creche" address="RUE DE LA PEPINIERE" city="Paris" postal="75008" country="FR" featured="true" features=""/><marker name="CRECHE COLLECTIVE 15 TER, RUE DE LA TOUR D AUVERGNE" lat="48.87901100" lng="2.34410630" category="Creche" address="RUE DE LA TOUR D'AUVERGNE" city="Paris" postal="75009" country="FR" featured="true" features=""/><marker name="CRECHE COLLECTIVE 25, RUE DE LA ROCHEFOUCAULD" lat="48.87879710" lng="2.33457140" category="Creche" address="RUE DE LA ROCHEFOUCAULD" city="Paris" postal="75009" country="FR" featured="true" features=""/><marker name="CRECHE COLLECTIVE 34 A, RUE DES MARTYRS" lat="48.87875590" lng="2.33980370" category="Creche" address="RUE DES MARTYRS" city="Paris" postal="75009" country="FR" featured="true" features=""/><marker name="CRECHE COLLECTIVE 1, SQUARE ALBAN SATRAGNE" lat="48.87532610" lng="2.35456200" category="Creche" address="SQUARE ALBAN SATRAGNE" city="Paris" postal="75010" country="FR" featured="true" features=""/><marker name="CRECHE COLLECTIVE 64 BIS, AVENUE CLAUDE VELLEFAUX  1ER ET 2E ETAGE" lat="48.87683070" lng="2.37048650" category="Creche" address="AVENUE CLAUDE VELLEFAUX" city="Paris" postal="75010" country="FR" featured="true" features=""/><marker name="CRECHE COLLECTIVE 83, RUE MARCADET" lat="48.89045890" lng="2.34636960" category="Creche" address="RUE MARCADET" city="Paris" postal="75018" country="FR" featured="true" features=""/><marker name="CRECHE COLLECTIVE 12, RUE GEORGETTE AGUTTE" lat="48.89517330" lng="2.33276740" category="Creche" address="RUE GEORGETTE AGUTTE" city="Paris" postal="75018" country="FR" featured="true" features=""/><marker name="CRECHE COLLECTIVE 15, RUE BECQUEREL" lat="48.88832310" lng="2.34205090" category="Creche" address="RUE BECQUEREL" city="Paris" postal="75018" country="FR" featured="true" features=""/><marker name="CRECHE COLLECTIVE 15, RUE RICHOMME" lat="48.88640620" lng="2.35195820" category="Creche" address="RUE RICHOMME" city="Paris" postal="75018" country="FR" featured="true" features=""/><marker name="MINI CRECHE 44, RUE LEON" lat="48.88983630" lng="2.35350790" category="Creche" address="RUE LEON" city="Paris" postal="75018" country="FR" featured="true" features=""/><marker name="MINI CRECHE 6, PASSAGE GANNERON" lat="48.88991350" lng="2.32683980" category="Creche" address="PASSAGE GANNERON" city="Paris" postal="75018" country="FR" featured="true" features=""/><marker name="CRECHE COLLECTIVE 329, RUE DE BELLEVILLE" lat="48.87656960" lng="2.40449850" category="Creche" address="RUE DE BELLEVILLE" city="Paris" postal="75019" country="FR" featured="true" features=""/><marker name="CRECHE COLLECTIVE  5, RUE FRANCIS PONGE" lat="48.88220530" lng="2.39454240" category="Creche" address="RUE FRANCIS PONGE" city="Paris" postal="75019" country="FR" featured="true" features=""/><marker name="CRECHE COLLECTIVE 7, ALLEE DES EIDERS" lat="48.89431280" lng="2.37938020" category="Creche" address="ALLEE DES EIDERS" city="Paris" postal="75019" country="FR" featured="true" features=""/><marker name="MINI CRECHE 7, ALLEE ARTHUR HONEGGER" lat="48.88726420" lng="2.39396890" category="Creche" address="ALLEE ARTHUR HONEGGER" city="Paris" postal="75019" country="FR" featured="true" features=""/><marker name="CRECHE FAMILIALE 1, RUE DE L OISE - TOUR G" lat="48.89066420" lng="2.38219650" category="Creche" address="RUE DE L' OISE" city="Paris" postal="75019" country="FR" featured="true" features=""/><marker name="CRECHE FAMILIALE 129-131, RUE DE BELLEVILLE" lat="48.87477040" lng="2.38857500" category="Creche" address="RUE DE BELLEVILLE" city="Paris" postal="75019" country="FR" featured="true" features=""/><marker name="CRECHE COLLECTIVE 21, RUE DE LA PREVOYANCE" lat="48.88336730" lng="2.39390420" category="Creche" address="RUE DE LA PREVOYANCE" city="Paris" postal="75019" country="FR" featured="true" features=""/><marker name="CRECHE FAMILIALE 13, RUE ALPHONSE KARR" lat="48.89480000" lng="2.38080220" category="Creche" address="RUE ALPHONSE KARR" city="Paris" postal="75019" country="FR" featured="true" features=""/><marker name="CRECHE COLLECTIVE 40, RUE PIAT" lat="48.87245200" lng="2.38452320" category="Creche" address="RUE PIAT" city="Paris" postal="75020" country="FR" featured="true" features=""/><marker name="CRECHE COLLECTIVE 83, RUE DES AMANDIERS" lat="48.86661290" lng="2.38935880" category="Creche" address="RUE DES AMANDIERS" city="Paris" postal="75020" country="FR" featured="true" features=""/><marker name="CRECHE FAMILIALE 22 TER, RUE DES JARDINS SAINT PAUL" lat="48.85374070" lng="2.36099400" category="Creche" address="RUE DES JARDINS SAINT-PAUL" city="Paris" postal="75004" country="FR" featured="true" features=""/><marker name="CRECHE COLLECTIVE 4, RUE JEAN CALVIN" lat="48.84162740" lng="2.34908770" category="Creche" address="RUE JEAN CALVIN" city="Paris" postal="75005" country="FR" featured="true" features=""/><marker name="MINI CRECHE 5, RUE DE L EPEE DE BOIS" lat="48.84150080" lng="2.35111370" category="Creche" address="RUE DE L' EPEE DE BOIS" city="Paris" postal="75005" country="FR" featured="true" features=""/><marker name="CRECHE COLLECTIVE 88 TER, BOULEVARD PORT ROYAL 4E ETAGE" lat="48.83920820" lng="2.33916010" category="Creche" address="BOULEVARD DE PORT-ROYAL" city="Paris" postal="75005" country="FR" featured="true" features=""/><marker name="CRECHE COLLECTIVE 39 BIS, RUE POLIVEAU" lat="48.83991100" lng="2.35767330" category="Creche" address="RUE POLIVEAU" city="Paris" postal="75005" country="FR" featured="true" features=""/><marker name="CRECHE COLLECTIVE 14, RUE DE FLEURUS" lat="48.84718210" lng="2.33070910" category="Creche" address="RUE DE FLEURUS" city="Paris" postal="75006" country="FR" featured="true" features=""/><marker name="HALTE-CRECHE 6, RUE FELIBIEN" lat="48.85175180" lng="2.33666960" category="Creche" address="RUE FELIBIEN" city="Paris" postal="75006" country="FR" featured="true" features=""/><marker name="CRECHE COLLECTIVE 14,  RUE D ESTREES" lat="48.85159300" lng="2.31144150" category="Creche" address="RUE D' ESTREES" city="Paris" postal="75007" country="FR" featured="true" features=""/><marker name="CRECHE COLLECTIVE 13 BIS, RUE DE MONCEAU" lat="48.87572130" lng="2.30715270" category="Creche" address="RUE DE MONCEAU" city="Paris" postal="75008" country="FR" featured="true" features=""/><marker name="CRECHE COLLECTIVE 208, RUE DU FAUBOURG SAINT HONORE" lat="48.87527820" lng="2.30472250" category="Creche" address="RUE DU FAUBOURG SAINT-HONORE" city="Paris" postal="75008" country="FR" featured="true" features=""/><marker name="CRECHE COLLECTIVE 11, RUE DROUOT" lat="48.87344990" lng="2.34043990" category="Creche" address="RUE DROUOT" city="Paris" postal="75009" country="FR" featured="true" features=""/><marker name="CRECHE COLLECTIVE 18, RUE DE LA TOUR D AUVERGNE" lat="48.87908010" lng="2.34418540" category="Creche" address="RUE DE LA TOUR D'AUVERGNE" city="Paris" postal="75009" country="FR" featured="true" features=""/><marker name="CRECHE COLLECTIVE 15, RUE LOUIS BLANC" lat="48.87916500" lng="2.36860670" category="Creche" address="RUE LOUIS BLANC" city="Paris" postal="75010" country="FR" featured="true" features=""/><marker name="CRECHE COLLECTIVE 241-243, RUE LAFAYETTE" lat="48.88250840" lng="2.36869440" category="Creche" address="RUE LA FAYETTE" city="Paris" postal="75010" country="FR" featured="true" features=""/><marker name="CRECHE COLLECTIVE 8, RUE BOSSUET" lat="48.87860340" lng="2.35222670" category="Creche" address="RUE BOSSUET" city="Paris" postal="75010" country="FR" featured="true" features=""/><marker name="CRECHE FAMILIALE 21, RUE DES PETITES ECURIES" lat="48.87362260" lng="2.35188540" category="Creche" address="RUE DES PETITES ECURIES" city="Paris" postal="75010" country="FR" featured="true" features=""/><marker name="CRECHE COLLECTIVE (MINI) 38 RUE SAINT-BERNARD" lat="48.85283600" lng="2.38097180" category="Creche" address="RUE SAINT-BERNARD" city="Paris" postal="75011" country="FR" featured="true" features=""/><marker name="CRECHE COLLECTIVE 10, RUE PREAULT" lat="48.87789970" lng="2.38280970" category="Creche" address="RUE PREAULT" city="Paris" postal="75019" country="FR" featured="true" features=""/><marker name="CRECHE COLLECTIVE 28, RUE DE TANGER" lat="48.88838980" lng="2.37093710" category="Creche" address="RUE DE TANGER" city="Paris" postal="75019" country="FR" featured="true" features=""/><marker name="CRECHE COLLECTIVE 3, RUE DE LA SOLIDARITE" lat="48.88306600" lng="2.38975340" category="Creche" address="RUE DE LA SOLIDARITE" city="Paris" postal="75019" country="FR" featured="true" features=""/><marker name="CRECHE COLLECTIVE 34, RUE PETIT" lat="48.88483860" lng="2.38226630" category="Creche" address="RUE PETIT" city="Paris" postal="75019" country="FR" featured="true" features=""/><marker name="CRECHE COLLECTIVE 5, RUE EUGENIE COTTON" lat="48.87812570" lng="2.39384980" category="Creche" address="RUE EUGENIE COTTON" city="Paris" postal="75019" country="FR" featured="true" features=""/><marker name="CRECHE COLLECTIVE 8-10, RUE JOSEPH KOSMA" lat="48.88968620" lng="2.38619770" category="Creche" address="RUE JOSEPH KOSMA" city="Paris" postal="75019" country="FR" featured="true" features=""/><marker name="CRECHE FAMILIALE 3, RUE DE LA SOLIDARITE" lat="48.88306600" lng="2.38975340" category="Creche" address="RUE DE LA SOLIDARITE" city="Paris" postal="75019" country="FR" featured="true" features=""/><marker name="CRECHE COLLECTIVE 66, RUE DE LA MOUZAIA" lat="48.88019300" lng="2.39803560" category="Creche" address="RUE DE MOUZAIA" city="Paris" postal="75019" country="FR" featured="true" features=""/><marker name="CRECHE COLLECTIVE 17 BIS, RUE DE L ARBRE SEC" lat="48.85978460" lng="2.34195420" category="Creche" address="RUE DE L' ARBRE SEC" city="Paris" postal="75001" country="FR" featured="true" features=""/><marker name="CRECHE COLLECTIVE 26, RUE SAINT ROCH" lat="48.86602940" lng="2.33279480" category="Creche" address="RUE SAINT-ROCH" city="Paris" postal="75001" country="FR" featured="true" features=""/><marker name="MINI CRECHE 44, RUE GRENETA" lat="48.86537110" lng="2.34855990" category="Creche" address="RUE GRENETA" city="Paris" postal="75002" country="FR" featured="true" features=""/><marker name="CRECHE COLLECTIVE 5, PLACE DES PETITS PERES - ART 30 SAS &quot;LA MAISON BLEUE&quot;" lat="48.86622440" lng="2.34087880" category="Creche" address="PLACE DES PETITS PERES" city="Paris" postal="75002" country="FR" featured="true" features=""/><marker name="MINI CRECHE 21, RUE DES BLANCS MANTEAUX" lat="48.85903410" lng="2.35688540" category="Creche" address="RUE DES BLANCS MANTEAUX" city="Paris" postal="75004" country="FR" featured="true" features=""/><marker name="CRECHE COLLECTIVE 8, RUE EGINHARD" lat="48.85404450" lng="2.36165910" category="Creche" address="RUE EGINHARD" city="Paris" postal="75004" country="FR" featured="true" features=""/><marker name="CRECHE COLLECTIVE 48, RUE LACEPEDE" lat="48.84434590" lng="2.35014920" category="Creche" address="RUE LACEPEDE" city="Paris" postal="75005" country="FR" featured="true" features=""/><marker name="CRECHE COLLECTIVE 10, RUE LOBINEAU" lat="48.85172620" lng="2.33607760" category="Creche" address="RUE LOBINEAU" city="Paris" postal="75006" country="FR" featured="true" features=""/><marker name="CRECHE COLLECTIVE 15, RUE VISCONTI" lat="48.85576010" lng="2.33561130" category="Creche" address="RUE VISCONTI" city="Paris" postal="75006" country="FR" featured="true" features=""/><marker name="CRECHE COLLECTIVE 13, RUE TURGOT" lat="48.88027720" lng="2.34534500" category="Creche" address="RUE TURGOT" city="Paris" postal="75009" country="FR" featured="true" features=""/><marker name="MINI CRECHE 43, RUE VICTOR MASSE" lat="48.88113830" lng="2.33638890" category="Creche" address="RUE VICTOR MASSE" city="Paris" postal="75009" country="FR" featured="true" features=""/><marker name="CRECHE COLLECTIVE 10-12, RUE DES RECOLLETS" lat="48.87459060" lng="2.36166630" category="Creche" address="RUE DES RECOLLETS" city="Paris" postal="75010" country="FR" featured="true" features=""/><marker name="CRECHE COLLECTIVE 9, RUE PHILIPPE DE GIRARD" lat="48.88210270" lng="2.36138240" category="Creche" address="RUE PHILIPPE DE GIRARD" city="Paris" postal="75010" country="FR" featured="true" features=""/><marker name="CRECHE COLLECTIVE 3, PASSAGE DELESSERT" lat="48.87892010" lng="2.36553710" category="Creche" address="PASSAGE DELESSERT" city="Paris" postal="75010" country="FR" featured="true" features=""/><marker name="CRECHE COLLECTIVE 19, RUE PELEE" lat="48.86010380" lng="2.37038440" category="Creche" address="RUE PELEE" city="Paris" postal="75011" country="FR" featured="true" features=""/><marker name="CRECHE COLLECTIVE 156, RUE RAYMOND LOSSERAND" lat="48.83060210" lng="2.31139000" category="Creche" address="RUE RAYMOND LOSSERAND" city="Paris" postal="75014" country="FR" featured="true" features=""/><marker name="CRECHE COLLECTIVE 1, RUE DES MARINIERS" lat="48.82718880" lng="2.31196320" category="Creche" address="RUE DES MARINIERS" city="Paris" postal="75014" country="FR" featured="true" features=""/><marker name="MINI CRECHE 22, RUE BROUSSAIS" lat="48.82934340" lng="2.33643610" category="Creche" address="RUE BROUSSAIS" city="Paris" postal="75014" country="FR" featured="true" features=""/><marker name="CRECHE FAMILIALE 8, RUE AUGUSTE CAIN" lat="48.82583010" lng="2.32111610" category="Creche" address="RUE AUGUSTE CAIN" city="Paris" postal="75014" country="FR" featured="true" features=""/><marker name="CRECHE COLLECTIVE 18, RUE VIALA - ART 30 OEUVRE CROIX ST SIMON" lat="48.85037350" lng="2.29055260" category="Creche" address="RUE VIALA" city="Paris" postal="75015" country="FR" featured="true" features=""/><marker name="CRECHE COLLECTIVE 62, RUE CAMBRONNE" lat="48.84374320" lng="2.30238200" category="Creche" address="RUE CAMBRONNE" city="Paris" postal="75015" country="FR" featured="true" features=""/><marker name="CRECHE COLLECTIVE 73, AVENUE FELIX FAURE  - FOND DE COUR" lat="48.83997770" lng="2.28537090" category="Creche" address="AVENUE FELIX FAURE" city="Paris" postal="75015" country="FR" featured="true" features=""/><marker name="CRECHE COLLECTIVE 1, PLACE DE LA GARENNE -RUE SAINTE LEONIE" lat="48.83350090" lng="2.32016320" category="Creche" address="PLACE DE LA GARENNE" city="Paris" postal="75014" country="FR" featured="true" features=""/><marker name="CRECHE FAMILIALE 3, PLACE DE LA GARENNE -RUE SAINTE LEONIE" lat="48.83347940" lng="2.32001920" category="Creche" address="PLACE DE LA GARENNE" city="Paris" postal="75014" country="FR" featured="true" features=""/><marker name="CRECHE COLLECTIVE 10, RUE DE L INGENIEUR ROBERT KELLER" lat="48.84796630" lng="2.28204990" category="Creche" address="RUE DE L' INGENIEUR ROBERT KELLER" city="Paris" postal="75015" country="FR" featured="true" features=""/><marker name="CRECHE COLLECTIVE 18 BIS, AVENUE DE LOWENDAL" lat="48.84922540" lng="2.30312730" category="Creche" address="AVENUE DE LOWENDAL" city="Paris" postal="75015" country="FR" featured="true" features=""/><marker name="CRECHE COLLECTIVE 2, RUE MAURICE MAIGNEN" lat="48.83861080" lng="2.31343340" category="Creche" address="RUE MAURICE MAIGNEN" city="Paris" postal="75015" country="FR" featured="true" features=""/><marker name="CRECHE COLLECTIVE 32, RUE EDGAR FAURE" lat="48.85165740" lng="2.29585540" category="Creche" address="RUE EDGAR FAURE" city="Paris" postal="75015" country="FR" featured="true" features=""/><marker name="CRECHE COLLECTIVE 379 BIS, RUE DE VAUGIRARD" lat="48.83587540" lng="2.29352880" category="Creche" address="RUE DE VAUGIRARD" city="Paris" postal="75015" country="FR" featured="true" features=""/><marker name="CRECHE COLLECTIVE 54, BOULEVARD LEFEBVRE" lat="48.82976500" lng="2.29553550" category="Creche" address="BOULEVARD LEFEBVRE" city="Paris" postal="75015" country="FR" featured="true" features=""/><marker name="CRECHE COLLECTIVE 21, RUE DE L ETOILE" lat="48.87767790" lng="2.29489690" category="Creche" address="RUE DE L' ETOILE" city="Paris" postal="75017" country="FR" featured="true" features=""/><marker name="CRECHE COLLECTIVE 107, RUE DE LAGNY" lat="48.84906500" lng="2.41153990" category="Creche" address="RUE DE LAGNY" city="Paris" postal="75020" country="FR" featured="true" features=""/><marker name="CRECHE COLLECTIVE 10-12-14 PASSAGE DAGORNO" lat="48.85526960" lng="2.40497750" category="Creche" address="PASSAGE DAGORNO" city="Paris" postal="75020" country="FR" featured="true" features=""/><marker name="CRECHE COLLECTIVE 79, RUE DE LA REUNION" lat="48.85627100" lng="2.40039570" category="Creche" address="RUE DE LA REUNION" city="Paris" postal="75020" country="FR" featured="true" features=""/><marker name="CRECHE COLLECTIVE 8, RUE DES COURONNES" lat="48.86947080" lng="2.38172540" category="Creche" address="RUE DES COURONNES" city="Paris" postal="75020" country="FR" featured="true" features=""/><marker name="CRECHE COLLECTIVE 8, VILLA SAINT-FARGEAU" lat="48.87176440" lng="2.40156480" category="Creche" address="VILLA SAINT-FARGEAU" city="Paris" postal="75020" country="FR" featured="true" features=""/><marker name="CRECHE FAMILIALE 16, RUE DE NOISY LE SEC" lat="48.87194760" lng="2.41218560" category="Creche" address="RUE DE NOISY LE SEC" city="Paris" postal="75020" country="FR" featured="true" features=""/><marker name="CRECHE COLLECTIVE 117, AVENUE PHILIPPE AUGUSTE" lat="48.85721240" lng="2.39018600" category="Creche" address="AVENUE PHILIPPE-AUGUSTE" city="Paris" postal="75011" country="FR" featured="true" features=""/><marker name="CRECHE COLLECTIVE 16, CITE BEAUHARNAIS" lat="48.85419230" lng="2.39009350" category="Creche" address="CITE BEAUHARNAIS" city="Paris" postal="75011" country="FR" featured="true" features=""/><marker name="CRECHE COLLECTIVE 25, RUE GODEFROY CAVAIGNAC" lat="48.85538630" lng="2.38095970" category="Creche" address="RUE GODEFROY CAVAIGNAC" city="Paris" postal="75011" country="FR" featured="true" features=""/><marker name="CRECHE COLLECTIVE (MINI CRECHE) 21, RUE DE VAUCOULEURS - ART 30" lat="48.86995830" lng="2.37698460" category="Creche" address="RUE DE VAUCOULEURS" city="Paris" postal="75011" country="FR" featured="true" features=""/><marker name="CRECHE COLLECTIVE 14-16, RUE PIERRE BOURDAN" lat="48.84714570" lng="2.39124630" category="Creche" address="RUE PIERRE BOURDAN" city="Paris" postal="75012" country="FR" featured="true" features=""/><marker name="CRECHE COLLECTIVE 18, RUE GEORGES ET MAÏ POLITZER" lat="48.85661400" lng="2.35222190" category="Creche" address="RUE GEORGES ET MAØ POLITZER" city="Paris" postal="75012" country="FR" featured="true" features=""/><marker name="CRECHE COLLECTIVE 43, RUE DE PICPUS" lat="48.84362820" lng="2.39682490" category="Creche" address="RUE DE PICPUS" city="Paris" postal="75012" country="FR" featured="true" features=""/><marker name="CRECHE COLLECTIVE 10 RUE RICAUT" lat="48.82967780" lng="2.36131860" category="Creche" address="RUE RICAUT" city="Paris" postal="75013" country="FR" featured="true" features=""/><marker name="CRECHE COLLECTIVE C2 33 RUE DU JAVELOT" lat="48.82442540" lng="2.36620540" category="Creche" address="RUE DU JAVELOT" city="Paris" postal="75013" country="FR" featured="true" features=""/><marker name="CRECHE COLLECTIVE 14, RUE AUGUSTE CAIN" lat="48.82596420" lng="2.32061730" category="Creche" address="RUE AUGUSTE CAIN" city="Paris" postal="75014" country="FR" featured="true" features=""/><marker name="CRECHE COLLECTIVE 2, RUE CABANIS" lat="48.83028890" lng="2.34126230" category="Creche" address="RUE CABANIS" city="Paris" postal="75014" country="FR" featured="true" features=""/><marker name="CRECHE COLLECTIVE 82, RUE PERNETY" lat="48.83541310" lng="2.31561750" category="Creche" address="RUE PERNETY" city="Paris" postal="75014" country="FR" featured="true" features=""/><marker name="CRECHE COLLECTIVE 9, RUE JEAN DOLENT" lat="48.83322210" lng="2.34051050" category="Creche" address="RUE JEAN DOLENT" city="Paris" postal="75014" country="FR" featured="true" features=""/><marker name="HALTE-CRECHE 4, SQUARE ANDRE LICHTENBERGER" lat="48.82774580" lng="2.31088710" category="Creche" address="SQUARE ANDRE LICHTENBERGER" city="Paris" postal="75014" country="FR" featured="true" features=""/><marker name="CRECHE FAMILIALE 22, RUE BROUSSAIS" lat="48.82934340" lng="2.33643610" category="Creche" address="RUE BROUSSAIS" city="Paris" postal="75014" country="FR" featured="true" features=""/><marker name="CRECHE COLLECTIVE 47, RUE BARGUE" lat="48.83770740" lng="2.30937810" category="Creche" address="RUE BARGUE" city="Paris" postal="75015" country="FR" featured="true" features=""/><marker name="CRECHE COLLECTIVE 19, RUE CHARLES LECOCQ  - ART. 30 (PEOPLE &amp; BABY)" lat="48.84070650" lng="2.29482390" category="Creche" address="RUE CHARLES LECOCQ" city="Paris" postal="75015" country="FR" featured="true" features=""/><marker name="CRECHE COLLECTIVE 22, RUE DE LA PROCESSION" lat="48.83909720" lng="2.30625670" category="Creche" address="RUE DE LA PROCESSION" city="Paris" postal="75015" country="FR" featured="true" features=""/><marker name="CRECHE COLLECTIVE 44, RUE DES MORILLONS" lat="48.83211860" lng="2.30294370" category="Creche" address="RUE DES MORILLONS" city="Paris" postal="75015" country="FR" featured="true" features=""/><marker name="CRECHE COLLECTIVE 5, RUE CLEMENT MYIONNET" lat="48.84376370" lng="2.27884960" category="Creche" address="RUE CLEMENT MYIONNET" city="Paris" postal="75015" country="FR" featured="true" features=""/><marker name="CRECHE COLLECTIVE 53, RUE EMERIAU" lat="48.84859920" lng="2.28529390" category="Creche" address="RUE EMERIAU" city="Paris" postal="75015" country="FR" featured="true" features=""/><marker name="CRECHE COLLECTIVE 33, RUE LACORDAIRE" lat="48.84267720" lng="2.28315450" category="Creche" address="RUE LACORDAIRE" city="Paris" postal="75015" country="FR" featured="true" features=""/><marker name="CRECHE COLLECTIVE 141, RUE DE LA CONVENTION" lat="48.83963340" lng="2.29116700" category="Creche" address="RUE DE LA CONVENTION" city="Paris" postal="75015" country="FR" featured="true" features=""/><marker name="CRECHE FAMILIALE 25, ALLEE DU CAPITAINE DRONNE" lat="48.83949140" lng="2.31727450" category="Creche" address="ALLEE DU CAPITAINE DRONNE" city="Paris" postal="75015" country="FR" featured="true" features=""/><marker name="CRECHE COLLECTIVE 128, RUE DE LONGCHAMP" lat="48.86721310" lng="2.27826760" category="Creche" address="RUE DE LONGCHAMP" city="Paris" postal="75016" country="FR" featured="true" features=""/><marker name="CRECHE COLLECTIVE 11, RUE SERGE PROKOFIEV" lat="48.85418720" lng="2.26813280" category="Creche" address="RUE SERGE PROKOFIEV" city="Paris" postal="75016" country="FR" featured="true" features=""/><marker name="CRECHE FAMILIALE 35, RUE CLAUDE TERRASSE" lat="48.83852970" lng="2.26201130" category="Creche" address="RUE CLAUDE TERRASSE" city="Paris" postal="75016" country="FR" featured="true" features=""/><marker name="CRECHE COLLECTIVE 51, RUE BERZELIUS" lat="48.89473090" lng="2.31997940" category="Creche" address="RUE BERZELIUS" city="Paris" postal="75017" country="FR" featured="true" features=""/><marker name="CRECHE COLLECTIVE 1-3,  BOULEVARD DU BOIS LE PRÊTRE" lat="48.89898390" lng="2.32192150" category="Creche" address="BOULEVARD DU BOIS LE PRETRE" city="Paris" postal="75017" country="FR" featured="true" features=""/><marker name="CRECHE COLLECTIVE 30, RUE CHRISTINE DE PISAN" lat="48.89007610" lng="2.30805690" category="Creche" address="RUE CHRISTINE DE PISAN" city="Paris" postal="75017" country="FR" featured="true" features=""/><marker name="CRECHE COLLECTIVE 32-34 RUE DE CHATEAUDUN" lat="48.87620080" lng="2.33644520" category="Creche" address="RUE DU CHATEAUDUN" city="Paris" postal="75009" country="FR" featured="true" features=""/><marker name="HALTE-CRECHE 26, RUE CHAPTAL - ART 30 OEUVRE CROIX ST SIMON" lat="48.88110110" lng="2.33234000" category="Creche" address="RUE CHAPTAL" city="Paris" postal="75009" country="FR" featured="true" features=""/><marker name="MINI CRECHE 69 BIS, RUE DE DUNKERQUE" lat="48.88153970" lng="2.34801270" category="Creche" address="RUE DE DUNKERQUE" city="Paris" postal="75009" country="FR" featured="true" features=""/><marker name="CRECHE COLLECTIVE 25, RUE BALLU" lat="48.88202910" lng="2.32931880" category="Creche" address="RUE BALLU" city="Paris" postal="75009" country="FR" featured="true" features=""/><marker name="CRECHE COLLECTIVE 66 BIS, AVENUE CLAUDE VELLEFAUX  3E ET 4E ETAGE" lat="48.87711300" lng="2.37051650" category="Creche" address="AVENUE CLAUDE VELLEFAUX" city="Paris" postal="75010" country="FR" featured="true" features=""/><marker name="CRECHE COLLECTIVE 108-110, RUE SAINT MAUR" lat="48.86653790" lng="2.37658140" category="Creche" address="RUE SAINT-MAUR" city="Paris" postal="75011" country="FR" featured="true" features=""/><marker name="CRECHE COLLECTIVE 13 BIS, RUE POPINCOURT" lat="48.85755450" lng="2.37722580" category="Creche" address="RUE POPINCOURT" city="Paris" postal="75011" country="FR" featured="true" features=""/><marker name="CRECHE COLLECTIVE 30 BIS, AVENUE PHILIPPE AUGUSTE" lat="48.85125700" lng="2.39415320" category="Creche" address="AVENUE PHILIPPE-AUGUSTE" city="Paris" postal="75011" country="FR" featured="true" features=""/><marker name="CRECHE COLLECTIVE 56, RUE SAINT MAUR" lat="48.86288510" lng="2.37948710" category="Creche" address="RUE SAINT-MAUR" city="Paris" postal="75011" country="FR" featured="true" features=""/><marker name="CRECHE COLLECTIVE 62, RUE SAINT SABIN" lat="48.85921670" lng="2.36882400" category="Creche" address="RUE SAINT-SABIN" city="Paris" postal="75011" country="FR" featured="true" features=""/><marker name="CRECHE COLLECTIVE 65, RUE DE LA FOLIE REGNAULT" lat="48.86171210" lng="2.38539760" category="Creche" address="RUE DE LA FOLIE-REGNAULT" city="Paris" postal="75011" country="FR" featured="true" features=""/><marker name="CRECHE COLLECTIVE 9, RUE SERVAN" lat="48.85947960" lng="2.38372070" category="Creche" address="RUE SERVAN" city="Paris" postal="75011" country="FR" featured="true" features=""/><marker name="CRECHE FAMILIALE 108-110, RUE SAINT MAUR" lat="48.86653790" lng="2.37658140" category="Creche" address="RUE SAINT-MAUR" city="Paris" postal="75011" country="FR" featured="true" features=""/><marker name="CRECHE FAMILIALE 16, CITE BEAUHARNAIS" lat="48.85419230" lng="2.39009350" category="Creche" address="CITE BEAUHARNAIS" city="Paris" postal="75011" country="FR" featured="true" features=""/><marker name="CRECHE COLLECTIVE  11 BIS, RUE EDOUARD ROBERT" lat="48.83671950" lng="2.39947160" category="Creche" address="RUE EDOUARD ROBERT" city="Paris" postal="75012" country="FR" featured="true" features=""/><marker name="CRECHE COLLECTIVE 16 B AVENUE DE SAINT-MANDE" lat="48.84516550" lng="2.39775570" category="Creche" address="AVENUE DE SAINT-MANDE" city="Paris" postal="75012" country="FR" featured="true" features=""/><marker name="CRECHE COLLECTIVE 8, PLACE DU BATAILLON DU PACIFIQUE 2E ETAGE" lat="48.85661400" lng="2.35222190" category="Creche" address="PLACE DU BATAILLON DU PACIFIQUE" city="Paris" postal="75012" country="FR" featured="true" features=""/><marker name="MINI CRECHE 33, RUE MONTGALLET" lat="48.84415990" lng="2.38918640" category="Creche" address="RUE MONTGALLET" city="Paris" postal="75012" country="FR" featured="true" features=""/><marker name="CRECHE COLLECTIVE 11, RUE VILLIOT" lat="48.84139930" lng="2.37496810" category="Creche" address="RUE VILLIOT" city="Paris" postal="75012" country="FR" featured="true" features=""/><marker name="CRECHE COLLECTIVE 72, AVENUE DAUMESNIL" lat="48.84452030" lng="2.38075050" category="Creche" address="AVENUE DAUMESNIL" city="Paris" postal="75012" country="FR" featured="true" features=""/><marker name="CRECHE COLLECTIVE 17, RUE DE CHAILLOT" lat="48.86669700" lng="2.29669860" category="Creche" address="RUE DE CHAILLOT" city="Paris" postal="75016" country="FR" featured="true" features=""/><marker name="CRECHE COLLECTIVE 2, RUE DU GENERAL GROSSETTI" lat="48.83736980" lng="2.26359730" category="Creche" address="RUE DU GENERAL GROSSETTI" city="Paris" postal="75016" country="FR" featured="true" features=""/><marker name="CRECHE COLLECTIVE 5-15, AVENUE ADRIEN HEBRARD" lat="48.85347530" lng="2.27034830" category="Creche" address="AVENUE ADRIEN HEBRARD" city="Paris" postal="75016" country="FR" featured="true" features=""/><marker name="MINI CRECHE 10-12, RUE DAUBIGNY - ART 30 (PEOPLE AND BABY)" lat="48.88499360" lng="2.30867540" category="Creche" address="RUE DAUBIGNY" city="Paris" postal="75017" country="FR" featured="true" features=""/><marker name="CRECHE COLLECTIVE 25, RUE CURNONSKY" lat="48.88967680" lng="2.29493690" category="Creche" address="RUE CURNONSKY" city="Paris" postal="75017" country="FR" featured="true" features=""/><marker name="CRECHE COLLECTIVE 52-54, RUE NOLLET" lat="48.88659960" lng="2.32202760" category="Creche" address="RUE NOLLET" city="Paris" postal="75017" country="FR" featured="true" features=""/><marker name="CRECHE COLLECTIVE 9, VILLA SAINTE CROIX" lat="48.89396600" lng="2.32429290" category="Creche" address="VILLA SAINTE-CROIX" city="Paris" postal="75017" country="FR" featured="true" features=""/><marker name="CRECHE FAMILIALE 3-11, PASSAGE BULLOURDE" lat="48.85368320" lng="2.37655380" category="Creche" address="PASSAGE BULLOURDE" city="Paris" postal="75011" country="FR" featured="true" features=""/><marker name="CRECHE FAMILIALE 56, RUE SAINT MAUR" lat="48.86288510" lng="2.37948710" category="Creche" address="RUE SAINT-MAUR" city="Paris" postal="75011" country="FR" featured="true" features=""/><marker name="CRECHE COLLECTIVE 81 BIS, RUE JEAN PIERRE TIMBAUD" lat="48.86794900" lng="2.37776270" category="Creche" address="RUE JEAN-PIERRE TIMBAUD" city="Paris" postal="75011" country="FR" featured="true" features=""/><marker name="CRECHE COLLECTIVE 4, IMPASSE DRUINOT" lat="48.84955870" lng="2.38081460" category="Creche" address="IMPASSE DRUINOT" city="Paris" postal="75012" country="FR" featured="true" features=""/><marker name="MINI CRECHE 49, RUE FRANÇOIS TRUFFAUT" lat="48.83403660" lng="2.38688520" category="Creche" address="RUE FRANCOIS TRUFFAUT" city="Paris" postal="75012" country="FR" featured="true" features=""/><marker name="CRECHE FAMILIALE 16, AVENUE BRUNETIERE" lat="48.88998000" lng="2.30029540" category="Creche" address="AVENUE BRUNETIERE" city="Paris" postal="75017" country="FR" featured="true" features=""/><marker name="CRECHE FAMILIALE 43, RUE GAUTHEY" lat="48.89305590" lng="2.32148220" category="Creche" address="RUE GAUTHEY" city="Paris" postal="75017" country="FR" featured="true" features=""/><marker name="CRECHE COLLECTIVE 10, RUE DU CAPORAL PEUGEOT" lat="48.88763140" lng="2.28905780" category="Creche" address="RUE DU CAPORAL PEUGEOT" city="Paris" postal="75017" country="FR" featured="true" features=""/><marker name="CRECHE COLLECTIVE 20, RUE RICHOMME" lat="48.88626770" lng="2.35115820" category="Creche" address="RUE RICHOMME" city="Paris" postal="75018" country="FR" featured="true" features=""/><marker name="CRECHE COLLECTIVE 42, RUE HERMEL" lat="48.89247170" lng="2.34467910" category="Creche" address="RUE HERMEL" city="Paris" postal="75018" country="FR" featured="true" features=""/><marker name="CRECHE COLLECTIVE 5-7, RUE CARPEAUX" lat="48.89043380" lng="2.33001760" category="Creche" address="RUE CARPEAUX" city="Paris" postal="75018" country="FR" featured="true" features=""/><marker name="CRECHE COLLECTIVE 16, AVENUE PORTE DES POISSONNIERS" lat="48.90144750" lng="2.35200220" category="Creche" address="AVENUE DE LA PORTE DES POISSONNIERS" city="Paris" postal="75018" country="FR" featured="true" features=""/><marker name="CRECHE COLLECTIVE 54, RUE DES POISSONNIERS - 15, RUE PIERRE BUDIN" lat="48.88973850" lng="2.35157840" category="Creche" address="RUE DES POISSONNIERS" city="Paris" postal="75018" country="FR" featured="true" features=""/><marker name="CRECHE COLLECTIVE 39-45 RUE SAINT VINCENT" lat="48.88863620" lng="2.33918520" category="Creche" address="RUE SAINT VINCENT" city="Paris" postal="75018" country="FR" featured="true" features=""/><marker name="CRECHE FAMILIALE 13, RUE CHARLES HERMITE" lat="48.89979970" lng="2.36876770" category="Creche" address="RUE CHARLES HERMITE" city="Paris" postal="75018" country="FR" featured="true" features=""/><marker name="CRECHE COLLECTIVE 3, RUE LA VIEUVILLE/PLACE DES ABBESSES" lat="48.88462620" lng="2.33887030" category="Creche" address="RUE LA VIEUVILLE" city="Paris" postal="75018" country="FR" featured="true" features=""/><marker name="CRECHE COLLECTIVE 118-120, AVENUE SIMON BOLIVAR" lat="48.87988780" lng="2.37431960" category="Creche" address="AVENUE SIMON BOLIVAR" city="Paris" postal="75019" country="FR" featured="true" features=""/><marker name="CRECHE COLLECTIVE 13 BIS, RUE DE ROUEN" lat="48.88768900" lng="2.37388270" category="Creche" address="RUE DE ROUEN" city="Paris" postal="75019" country="FR" featured="true" features=""/><marker name="CRECHE COLLECTIVE 25, RUE DE NANTES" lat="48.89192770" lng="2.38189140" category="Creche" address="RUE DE NANTES" city="Paris" postal="75019" country="FR" featured="true" features=""/><marker name="CRECHE COLLECTIVE 9, RUE ARCHEREAU" lat="48.88986400" lng="2.37215170" category="Creche" address="RUE ARCHEREAU" city="Paris" postal="75019" country="FR" featured="true" features=""/><marker name="CRECHE COLLECTIVE 1 RUE BARRAULT" lat="48.82937510" lng="2.34809260" category="Creche" address="RUE BARRAULT" city="Paris" postal="75013" country="FR" featured="true" features=""/><marker name="CRECHE COLLECTIVE 10 RUE DE LA POINTE D IVRY" lat="48.82294470" lng="2.36496230" category="Creche" address="RUE DE LA POINTE D'IVRY" city="Paris" postal="75013" country="FR" featured="true" features=""/><marker name="CRECHE COLLECTIVE 3 PASSAGE CHANVIN" lat="48.83215800" lng="2.37128750" category="Creche" address="PASSAGE CHANVIN" city="Paris" postal="75013" country="FR" featured="true" features=""/><marker name="CRECHE COLLECTIVE 58 RUE CLISSON" lat="48.83082840" lng="2.36605190" category="Creche" address="RUE CLISSON" city="Paris" postal="75013" country="FR" featured="true" features=""/><marker name="CRECHE COLLECTIVE 8 RUE DE LA FONTAINE À MULARD" lat="48.82346080" lng="2.34986780" category="Creche" address="RUE DE LA FONTAINE A MULARD" city="Paris" postal="75013" country="FR" featured="true" features=""/><marker name="CRECHE COLLECTIVE FRANÇOISE DOLTO" lat="48.82870620" lng="2.38099910" category="Creche" address="RUE MARIE-LOUISE DUBREIL-JACOTIN" city="Paris" postal="75013" country="FR" featured="true" features=""/><marker name="CRECHE FAMILIALE (SECTION) 12 RUE DUMERIL" lat="48.83728880" lng="2.35759680" category="Creche" address="RUE DUMERIL" city="Paris" postal="75013" country="FR" featured="true" features=""/><marker name="CRECHE COLLECTIVE 130, RUE DE L OUEST" lat="48.83295200" lng="2.31387270" category="Creche" address="RUE DE L' OUEST" city="Paris" postal="75014" country="FR" featured="true" features=""/><marker name="CRECHE FAMILIALE 50, RUE DE TURBIGO" lat="48.86530440" lng="2.35594300" category="Creche" address="RUE DE TURBIGO" city="Paris" postal="75003" country="FR" featured="true" features=""/><marker name="CRECHE COLLECTIVE 2-6, RUE DE MOUSSY" lat="48.85707460" lng="2.35528280" category="Creche" address="RUE DE MOUSSY" city="Paris" postal="75004" country="FR" featured="true" features=""/><marker name="CRECHE COLLECTIVE 30, RUE POLIVEAU" lat="48.84026220" lng="2.35874180" category="Creche" address="RUE POLIVEAU" city="Paris" postal="75005" country="FR" featured="true" features=""/><marker name="CRECHE COLLECTIVE 88 TER, BOULEVARD PORT ROYAL 3E ETAGE" lat="48.83920820" lng="2.33916010" category="Creche" address="BOULEVARD DE PORT-ROYAL" city="Paris" postal="75005" country="FR" featured="true" features=""/><marker name="CRECHE COLLECTIVE 9, RUE LECOMTE" lat="48.88862720" lng="2.32091630" category="Creche" address="RUE LECOMTE" city="Paris" postal="75017" country="FR" featured="true" features=""/><marker name="CRECHE FAMILIALE 6, PASSAGE GANNERON" lat="48.88991350" lng="2.32683980" category="Creche" address="PASSAGE GANNERON" city="Paris" postal="75018" country="FR" featured="true" features=""/><marker name="CRECHE COLLECTIVE 3, IMPASSE CALMELS" lat="48.89432210" lng="2.33865920" category="Creche" address="IMPASSE CALMELS" city="Paris" postal="75018" country="FR" featured="true" features=""/><marker name="CRECHE COLLECTIVE 8, PASSAGE GANNERON" lat="48.88982700" lng="2.32700560" category="Creche" address="PASSAGE GANNERON" city="Paris" postal="75018" country="FR" featured="true" features=""/><marker name="CRECHE COLLECTIVE 8, RUE BERNARD DIMEY" lat="48.89709090" lng="2.33158940" category="Creche" address="RUE BERNARD DIMEY" city="Paris" postal="75018" country="FR" featured="true" features=""/><marker name="CRECHE COLLECTIVE 9, RUE AFFRE - ART 30" lat="48.88590480" lng="2.35564980" category="Creche" address="RUE AFFRE" city="Paris" postal="75018" country="FR" featured="true" features=""/><marker name="CRECHE COUR DU MAROC" lat="48.88729790" lng="2.36682600" category="Creche" address="RUE D' AUBERVILLIERS" city="Paris" postal="75018" country="FR" featured="true" features=""/><marker name="CRECHE COLLECTIVE 22, RUE LAUZIN" lat="48.87586370" lng="2.37842200" category="Creche" address="RUE LAUZIN" city="Paris" postal="75019" country="FR" featured="true" features=""/><marker name="CRECHE COLLECTIVE 37, RUE ARMAND CARREL" lat="48.88264840" lng="2.37781610" category="Creche" address="RUE ARMAND CARREL" city="Paris" postal="75019" country="FR" featured="true" features=""/><marker name="CRECHE COLLECTIVE 8, RUE HENRI RIBIERE" lat="48.87643370" lng="2.39542620" category="Creche" address="RUE HENRI RIBIERE" city="Paris" postal="75019" country="FR" featured="true" features=""/><marker name="CRECHE COLLECTIVE 85, RUE CURIAL" lat="48.89552060" lng="2.37516660" category="Creche" address="RUE CURIAL" city="Paris" postal="75019" country="FR" featured="true" features=""/><marker name="MINI CRECHE 7, RUE LOUISE THULIEZ" lat="48.87756480" lng="2.39445400" category="Creche" address="RUE LOUISE THULIEZ" city="Paris" postal="75019" country="FR" featured="true" features=""/><marker name="CRECHE COLLECTIVE 11 RUE CHODERLOS DE LACLOS" lat="48.83258020" lng="2.37840840" category="Creche" address="RUE CHODERLOS DE LACLOS" city="Paris" postal="75013" country="FR" featured="true" features=""/><marker name="CRECHE COLLECTIVE 21 RUE DES RECULETTES" lat="48.83149070" lng="2.35069360" category="Creche" address="RUE DES RECULETTES" city="Paris" postal="75013" country="FR" featured="true" features=""/><marker name="CRECHE  COLLECTIVE A 49 BOULEVARD MASSENA" lat="48.82281590" lng="2.37329390" category="Creche" address="BOULEVARD MASSENA" city="Paris" postal="75013" country="FR" featured="true" features=""/><marker name="CRECHE COLLECTIVE FOYER MICHELET 235 RUE DE TOLBIAC" lat="48.82617770" lng="2.34302810" category="Creche" address="RUE DE TOLBIAC" city="Paris" postal="75013" country="FR" featured="true" features=""/><marker name="CRECHE COLLECTIVE 7 RUE DU DOCTEUR VICTOR HUTINEL" lat="48.83131110" lng="2.36414990" category="Creche" address="RUE DU DOCTEUR VICTOR HUTINEL" city="Paris" postal="75013" country="FR" featured="true" features=""/><marker name="CRECHE COLLECTIVE 10, RUE DELBET" lat="48.82965400" lng="2.31940110" category="Creche" address="RUE DELBET" city="Paris" postal="75014" country="FR" featured="true" features=""/><marker name="CRECHE COLLECTIVE 27, RUE DE POMMARD" lat="48.83628450" lng="2.38407030" category="Creche" address="RUE DE POMMARD" city="Paris" postal="75012" country="FR" featured="true" features=""/><marker name="CRECHE COLLECTIVE 101 RUE DE LA GLACIERE" lat="48.82804300" lng="2.34247000" category="Creche" address="RUE DE LA GLACIERE" city="Paris" postal="75013" country="FR" featured="true" features=""/><marker name="CRECHE COLLECTIVE 12 RUE DUMERIL" lat="48.83728880" lng="2.35759680" category="Creche" address="RUE DUMERIL" city="Paris" postal="75013" country="FR" featured="true" features=""/><marker name="CRECHE COLLECTIVE 14 RUE MAX JACOB" lat="48.82029030" lng="2.35348780" category="Creche" address="RUE MAX JACOB" city="Paris" postal="75013" country="FR" featured="true" features=""/><marker name="CRECHE COLLECTIVE 21 AVENUE LEON BOLLEE" lat="48.81814290" lng="2.36305780" category="Creche" address="AVENUE LEON BOLLEE" city="Paris" postal="75013" country="FR" featured="true" features=""/><marker name="CRECHE COLLECTIVE 6 RUE BAPTISTE RENARD" lat="48.82812240" lng="2.36682300" category="Creche" address="RUE BAPTISTE RENARD" city="Paris" postal="75013" country="FR" featured="true" features=""/><marker name="CRECHE COLLECTIVE B 49 BOULEVARD MASSENA - B" lat="48.82281590" lng="2.37329390" category="Creche" address="BOULEVARD MASSENA" city="Paris" postal="75013" country="FR" featured="true" features=""/><marker name="CRECHE COLLECTIVE C1 35, RUE DU JAVELOT" lat="48.82432010" lng="2.36573180" category="Creche" address="RUE DU JAVELOT" city="Paris" postal="75013" country="FR" featured="true" features=""/><marker name="CRECHE FAMILIALE 134 BD MASSENA" lat="48.81972160" lng="2.36335940" category="Creche" address="BOULEVARD MASSENA" city="Paris" postal="75013" country="FR" featured="true" features=""/><marker name="CRECHE FAMILIALE 33 RUE LONGUES RAIES" lat="48.82117350" lng="2.34733250" category="Creche" address="RUE DES LONGUES RAIES" city="Paris" postal="75013" country="FR" featured="true" features=""/><marker name="CRECHE COLLECTIVE 38, RUE DES RIGOLES" lat="48.87256830" lng="2.39267750" category="Creche" address="RUE DES RIGOLES" city="Paris" postal="75020" country="FR" featured="true" features=""/><marker name="CRECHE COLLECTIVE 47, RUE DU TELEGRAPHE" lat="48.87468230" lng="2.39891310" category="Creche" address="RUE DU TELEGRAPHE" city="Paris" postal="75020" country="FR" featured="true" features=""/><marker name="CRECHE COLLECTIVE 79, RUE DE PIXERECOURT" lat="48.87461890" lng="2.39569590" category="Creche" address="RUE PIXERECOURT" city="Paris" postal="75020" country="FR" featured="true" features=""/><marker name="MINI CRECHE 4, PASSAGE DURIS" lat="48.86427400" lng="2.38845810" category="Creche" address="PASSAGE DURIS" city="Paris" postal="75020" country="FR" featured="true" features=""/><marker name="CRECHE COLLECTIVE 25-27 RUE DES ORTEAUX" lat="48.85678230" lng="2.40067820" category="Creche" address="RUE DES ORTEAUX" city="Paris" postal="75020" country="FR" featured="true" features=""/><marker name="CRECHE FAMILIALE 8, PASSAGE DURIS" lat="48.86453300" lng="2.38887490" category="Creche" address="PASSAGE DURIS" city="Paris" postal="75020" country="FR" featured="true" features=""/><marker name="CRECHE COLLECTIVE 14, RUE DE NOISY LE SEC" lat="48.87186500" lng="2.41207990" category="Creche" address="RUE DE NOISY LE SEC" city="Paris" postal="75020" country="FR" featured="true" features=""/><marker name="CRECHE COLLECTIVE 41, RUE LUCIEN SAMPAIX GABRIEL DE MUN" lat="48.87372960" lng="2.36200810" category="Creche" address="RUE LUCIEN SAMPAIX" city="Paris" postal="75010" country="FR" featured="true" features=""/><marker name="CRECHE COLLECTIVE 53, RUE D HAUTEVILLE" lat="48.87457310" lng="2.35080690" category="Creche" address="RUE D' HAUTEVILLE" city="Paris" postal="75010" country="FR" featured="true" features=""/><marker name="MINI CRECHE 26, IMPASSE SAINTE MARTHE" lat="48.87397350" lng="2.37245810" category="Creche" address="IMPASSE SAINTE-MARTHE" city="Paris" postal="75010" country="FR" featured="true" features=""/><marker name="CRECHE COLLECTIVE 144, RUE DES PYRENEES" lat="48.85930550" lng="2.40195520" category="Creche" address="RUE DES PYRENEES" city="Paris" postal="75020" country="FR" featured="true" features=""/><marker name="CRECHE COLLECTIVE 19, RUE MALTE BRUN" lat="48.86478950" lng="2.39735240" category="Creche" address="RUE MALTE BRUN" city="Paris" postal="75020" country="FR" featured="true" features=""/><marker name="CRECHE COLLECTIVE 63 QUATER, RUE D AVRON" lat="48.85236190" lng="2.40314500" category="Creche" address="RUE D' AVRON" city="Paris" postal="75020" country="FR" featured="true" features=""/><marker name="CRECHE COLLECTIVE 82, RUE DES ORTEAUX" lat="48.85585770" lng="2.40703490" category="Creche" address="RUE DES ORTEAUX" city="Paris" postal="75020" country="FR" featured="true" features=""/><marker name="UNIVERS GYM PARIS" lat="48.86347000" lng="2.33860000" category="Salle de musculation" address="20-22, RUE DES BONS ENFANTS" city="Paris" postal="75056" country="FR" featured="true" features=""/><marker name="BNP PARIBAS" lat="48.86824000" lng="2.33196000" category="Salle de musculation" address="3, RUE LOUIS LE GRAND" city="Paris" postal="75056" country="FR" featured="true" features=""/><marker name="FITNESS CLUB BOURSE" lat="48.86991000" lng="2.34038000" category="Salle de musculation" address="24, RUE FEYDEAU" city="Paris" postal="75056" country="FR" featured="true" features=""/><marker name="L USINE" lat="48.86931000" lng="2.33453000" category="Salle de musculation" address="8, rue de la Michodiere" city="Paris" postal="75056" country="FR" featured="true" features=""/><marker name="L USINE" lat="48.86931000" lng="2.33453000" category="Salle de musculation" address="8, rue de la Michodiere" city="Paris" postal="75056" country="FR" featured="true" features=""/><marker name="CASERNE MONGE" lat="48.84290000" lng="2.35078000" category="Salle de musculation" address="21, RUE GRACIEUSE" city="Paris" postal="75056" country="FR" featured="true" features=""/><marker name="AZTECA CLUB" lat="48.87900000" lng="2.39008000" category="Salle de musculation" address="36, RUE DE CRIMEE" city="Paris" postal="75056" country="FR" featured="true" features=""/><marker name="REM GYM" lat="48.87730000" lng="2.40344000" category="Salle de musculation" address="72, RUE DE ROMAINVILLE" city="Paris" postal="75056" country="FR" featured="true" features=""/><marker name="ESPACE SPORTIF EDOUARD PAILLERON" lat="48.88090000" lng="2.37767000" category="Salle de musculation" address="30, RUE EDOUARD PAILLERON" city="Paris" postal="75056" country="FR" featured="true" features=""/><marker name="FSKLM" lat="48.87290000" lng="2.39188000" category="Salle de musculation" address="46, RUE DES RIGOLES" city="Paris" postal="75056" country="FR" featured="true" features=""/><marker name="CITE SCOLAIRE HELENE BOUCHER" lat="48.84770000" lng="2.40712000" category="Salle de musculation" address="75, COURS DE VINCENNES" city="Paris" postal="75056" country="FR" featured="true" features=""/><marker name="CLUB MED GYM PARIS 20EME" lat="48.85740000" lng="2.39914000" category="Salle de musculation" address="63, RUE DE BAGNOLET" city="Paris" postal="75056" country="FR" featured="true" features=""/><marker name="CLUB MED GYM MAILLOT" lat="48.87796940" lng="2.28545930" category="Salle de musculation" address="17, RUE DU DEBARCADERE" city="Paris" postal="75056" country="FR" featured="true" features=""/><marker name="CLUB MED GYM PALAIS ROYAL" lat="48.86219000" lng="2.33877000" category="Salle de musculation" address="147 bis, RUE SAINT HONORE" city="Paris" postal="75056" country="FR" featured="true" features=""/><marker name="L USINE" lat="48.86931000" lng="2.33453000" category="Salle de musculation" address="8, rue de la Michodiere" city="Paris" postal="75056" country="FR" featured="true" features=""/><marker name="L USINE" lat="48.86931000" lng="2.33453000" category="Salle de musculation" address="8, rue de la Michodiere" city="Paris" postal="75056" country="FR" featured="true" features=""/><marker name="CENTRE SPORTIF JEAN SARAILH" lat="48.84054000" lng="2.33733000" category="Salle de musculation" address="31, AVENUE GEORGES BERNANOS" city="Paris" postal="75056" country="FR" featured="true" features=""/><marker name="UNIVERSITE PARIS VI" lat="48.84786000" lng="2.35818000" category="Salle de musculation" address="4, PLACE DE JUSSIEU" city="Paris" postal="75056" country="FR" featured="true" features=""/><marker name="CLUB JEAN DE BEAUVAIS" lat="48.84928000" lng="2.34628000" category="Salle de musculation" address="5, RUE JEAN DE BEAUVAIS" city="Paris" postal="75056" country="FR" featured="true" features=""/><marker name="CLUB JEAN DE BEAUVAIS" lat="48.84928000" lng="2.34628000" category="Salle de musculation" address="5, RUE JEAN DE BEAUVAIS" city="Paris" postal="75056" country="FR" featured="true" features=""/><marker name="VIT HALLES NATION" lat="48.84787000" lng="2.39262000" category="Salle de musculation" address="164, BOULEVARD DIDEROT" city="Paris" postal="75056" country="FR" featured="true" features=""/><marker name="VIT HALLES NATION" lat="48.84787000" lng="2.39262000" category="Salle de musculation" address="164, BOULEVARD DIDEROT" city="Paris" postal="75056" country="FR" featured="true" features=""/><marker name="INSEP" lat="48.83099000" lng="2.45240800" category="Salle de musculation" address="11, AVENUE DU TREMBLAY" city="Paris" postal="75056" country="FR" featured="true" features=""/><marker name="STADE CHARLETY" lat="48.81813000" lng="2.34531000" category="Salle de musculation" address="99, BOULEVARD KELLERMANN" city="Paris" postal="75056" country="FR" featured="true" features=""/><marker name="CLUB MED Italie" lat="48.82813000" lng="2.35569000" category="Salle de musculation" address="14, RUE VANDREZANNE" city="Paris" postal="75056" country="FR" featured="true" features=""/><marker name="CLUB MED Italie" lat="48.82813000" lng="2.35569000" category="Salle de musculation" address="14, RUE VANDREZANNE" city="Paris" postal="75056" country="FR" featured="true" features=""/><marker name="WAOU CLUB MED GYM AUTEUIL" lat="48.84680000" lng="2.25956000" category="Salle de musculation" address="11, RUE CHANEZ" city="Paris" postal="75056" country="FR" featured="true" features=""/><marker name="GYMNASE PELLEPORT" lat="48.87290000" lng="2.39791000" category="Salle de musculation" address="162, RUE PELLEPORT" city="Paris" postal="75056" country="FR" featured="true" features=""/><marker name="CLUB MED GYM PARIS 20EME" lat="48.85740000" lng="2.39914000" category="Salle de musculation" address="63, RUE DE BAGNOLET" city="Paris" postal="75056" country="FR" featured="true" features=""/><marker name="LE CLUB" lat="48.85130000" lng="2.28327000" category="Salle de musculation" address="61, QUAI DE GRENELLE" city="Paris" postal="75056" country="FR" featured="true" features=""/><marker name="VIT HALLES BATIGNOLLES" lat="48.88302200" lng="2.32419200" category="Salle de musculation" address="32, BOULEVARD DES BATIGNOLLES" city="Paris" postal="75056" country="FR" featured="true" features=""/><marker name="WAOU CLUB MED GYM PORTE MAILLOT" lat="48.88071590" lng="2.28502210" category="Salle de musculation" address="1, place du général Koenig" city="Paris" postal="75056" country="FR" featured="true" features=""/><marker name="LADY FITNESS 2" lat="48.88200000" lng="2.30346000" category="Salle de musculation" address="131, rue Cardinet" city="Paris" postal="75056" country="FR" featured="true" features=""/><marker name="GYMNASE DES POISONNIERS" lat="48.89683800" lng="2.35276700" category="Salle de musculation" address="151, RUE DES POISSONNIERS" city="Paris" postal="75056" country="FR" featured="true" features=""/><marker name="PARIS TONIC" lat="48.88660000" lng="2.34753000" category="Salle de musculation" address="45, RUE DE CLIGNANCOURT" city="Paris" postal="75056" country="FR" featured="true" features=""/><marker name="HOPITAL BICHAT - APSAP" lat="48.89860000" lng="2.33096000" category="Salle de musculation" address="46, RUE HENRI HUCHARD" city="Paris" postal="75056" country="FR" featured="true" features=""/><marker name="DOJO PARIS 18EME" lat="48.89140000" lng="2.35974000" category="Salle de musculation" address="15, RUE DE LA CHAPELLE" city="Paris" postal="75056" country="FR" featured="true" features=""/><marker name="SUN CITY SPORT" lat="48.89330000" lng="2.32763000" category="Salle de musculation" address="90, AVENUE DE SAINT OUEN" city="Paris" postal="75056" country="FR" featured="true" features=""/><marker name="CERCLE DE LA FORME ORNANO" lat="48.89650000" lng="2.34651000" category="Salle de musculation" address="127, RUE DU MONT CENIS" city="Paris" postal="75056" country="FR" featured="true" features=""/><marker name="AZTECA CLUB" lat="48.87900000" lng="2.39008000" category="Salle de musculation" address="36, RUE DE CRIMEE" city="Paris" postal="75056" country="FR" featured="true" features=""/><marker name="ENJOY BY FKC" lat="48.89280000" lng="2.38049000" category="Salle de musculation" address="36, RUE DE NANTES" city="Paris" postal="75056" country="FR" featured="true" features=""/><marker name="REM GYM" lat="48.87730000" lng="2.40344000" category="Salle de musculation" address="72, RUE DE ROMAINVILLE" city="Paris" postal="75056" country="FR" featured="true" features=""/><marker name="REM GYM" lat="48.87730000" lng="2.40344000" category="Salle de musculation" address="72, RUE DE ROMAINVILLE" city="Paris" postal="75056" country="FR" featured="true" features=""/><marker name="ENJOY BY FKC" lat="48.89280000" lng="2.38049000" category="Salle de musculation" address="36, RUE DE NANTES" city="Paris" postal="75056" country="FR" featured="true" features=""/><marker name="UNION SPORTIVE MAISON BLANCHE" lat="48.82511000" lng="2.35147000" category="Salle de musculation" address="22, RUE CHARLES FOURIER" city="Paris" postal="75056" country="FR" featured="true" features=""/><marker name="CLUB MED Italie" lat="48.82813000" lng="2.35569000" category="Salle de musculation" address="14, RUE VANDREZANNE" city="Paris" postal="75056" country="FR" featured="true" features=""/><marker name="LYCEE GASTON BACHELARD" lat="48.82058000" lng="2.36017000" category="Salle de musculation" address="2, RUE TAGORE" city="Paris" postal="75056" country="FR" featured="true" features=""/><marker name="PISCINE MUNICIPALE DE LA BUTTES AUX CAILLES" lat="48.82746000" lng="2.35215000" category="Salle de musculation" address="5, PLACE PAUL VERLAINE" city="Paris" postal="75056" country="FR" featured="true" features=""/><marker name="CLUB MED Italie" lat="48.82813000" lng="2.35569000" category="Salle de musculation" address="14, RUE VANDREZANNE" city="Paris" postal="75056" country="FR" featured="true" features=""/><marker name="BIBLIOTHEQUE FRANCOIS MITTERAND" lat="48.83418000" lng="2.37470000" category="Salle de musculation" address="11, QUAI FRANCOIS-MAURIAC" city="Paris" postal="75056" country="FR" featured="true" features=""/><marker name="CENTRE SPORTIF JOSEPHINE BECKER" lat="48.83609000" lng="2.37581000" category="Salle de musculation" address=", Quai francois mauriac-port de la gare" city="Paris" postal="75056" country="FR" featured="true" features=""/><marker name="VIT HALLES RASPAIL" lat="48.83958000" lng="2.33023000" category="Salle de musculation" address="226, BOULEVARD RASPAIL" city="Paris" postal="75056" country="FR" featured="true" features=""/><marker name="INSTITUT DU JUDO" lat="48.82262000" lng="2.31557000" category="Salle de musculation" address="21-25, AVENUE  DE LA PORTE DE CHÂTILLON" city="Paris" postal="75056" country="FR" featured="true" features=""/><marker name="Lagardere Paris Racing" lat="48.86430000" lng="2.25554000" category="Salle de musculation" address="1, CHEMIN DE LA CROIX CATELAN" city="Paris" postal="75056" country="FR" featured="true" features=""/><marker name="LYCEE JANSON DE SAILLY" lat="48.86550000" lng="2.27945000" category="Salle de musculation" address="106, RUE DE LA POMPE" city="Paris" postal="75056" country="FR" featured="true" features=""/><marker name="WAOU CLUB MED GYM PORTE DE SEVRES" lat="48.83250000" lng="2.27781000" category="Salle de musculation" address="8, RUE LOUIS ARMAND" city="Paris" postal="75056" country="FR" featured="true" features=""/><marker name="HOPITAL EUROPEEN GEORGES POMPIDOU" lat="48.83970000" lng="2.27296000" category="Salle de musculation" address="20, RUE LEBLANC" city="Paris" postal="75056" country="FR" featured="true" features=""/><marker name="LADY MOVING" lat="48.83920000" lng="2.28981000" category="Salle de musculation" address="179 bis, RUE CROIX NIVERT" city="Paris" postal="75056" country="FR" featured="true" features=""/><marker name="NEONESS" lat="48.84980400" lng="2.29318400" category="Salle de musculation" address="18, RUE JUGE" city="Paris" postal="75056" country="FR" featured="true" features=""/><marker name="NEONESS" lat="48.84980400" lng="2.29318400" category="Salle de musculation" address="18, RUE JUGE" city="Paris" postal="75056" country="FR" featured="true" features=""/><marker name="VIT HALLES - SPA DAUPHINE" lat="48.86976000" lng="2.27388000" category="Salle de musculation" address="3, BOULEVARD LANNE" city="Paris" postal="75056" country="FR" featured="true" features=""/><marker name="CLUB MONTMARTOIS 2" lat="48.89230000" lng="2.34119000" category="Salle de musculation" address="50, RUE DUHESME" city="Paris" postal="75056" country="FR" featured="true" features=""/><marker name="SALLE DE SPORT ASPTT" lat="48.83810800" lng="2.30253600" category="Salle de musculation" address="15, RUE BOURSEUL" city="Paris" postal="75056" country="FR" featured="true" features=""/><marker name="TRAINING - CLUB DE MISE EN FORME" lat="48.84340000" lng="2.30555000" category="Salle de musculation" address="76, RUE LECOURBE" city="Paris" postal="75056" country="FR" featured="true" features=""/><marker name="CENTRE DE JEUNESSE CHRETIENNE ET FAMILIALE" lat="48.84240000" lng="2.30778000" category="Salle de musculation" address="116, RUE DE LOURMEL" city="Paris" postal="75056" country="FR" featured="true" features=""/><marker name="INSTITUT SAINT JEAN DE DIEU" lat="48.83920000" lng="2.29364000" category="Salle de musculation" address="223, RUE LECOURBE" city="Paris" postal="75056" country="FR" featured="true" features=""/><marker name="CLUB DE LA NATION" lat="48.84890000" lng="2.39995000" category="Salle de musculation" address="5, RUE DE LAGNY" city="Paris" postal="75056" country="FR" featured="true" features=""/><marker name="CASERNE KELLERMANN" lat="48.82068000" lng="2.34848000" category="Salle de musculation" address="56, boulevard kellermann" city="Paris" postal="75056" country="FR" featured="true" features=""/><marker name="CERCLE DE LA FORME" lat="48.86397000" lng="2.36895000" category="Salle de musculation" address="11, RUE DE MALTE" city="Paris" postal="75056" country="FR" featured="true" features=""/><marker name="CERCLE DE LA FORME" lat="48.86397000" lng="2.36895000" category="Salle de musculation" address="11, RUE DE MALTE" city="Paris" postal="75056" country="FR" featured="true" features=""/><marker name="WAOU CLUB MED GYM BERCY" lat="48.83313000" lng="2.38750000" category="Salle de musculation" address="45, RUE DES PIROGUES DE BERCY" city="Paris" postal="75056" country="FR" featured="true" features=""/><marker name="INSEP" lat="48.83252100" lng="2.45223600" category="Salle de musculation" address="11, AVENUE DU TREMBLAY" city="Paris" postal="75056" country="FR" featured="true" features=""/><marker name="WAOU CLUB MED GYM BERCY" lat="48.83313000" lng="2.38750000" category="Salle de musculation" address="45, RUE DES PIROGUES DE BERCY" city="Paris" postal="75056" country="FR" featured="true" features=""/><marker name="ANTHONY S STUDIO" lat="48.83971000" lng="2.40217000" category="Salle de musculation" address="16, RUE LOUIS BRAILLE" city="Paris" postal="75056" country="FR" featured="true" features=""/><marker name="INSEP" lat="48.83252100" lng="2.45223600" category="Salle de musculation" address="11, AVENUE DU TREMBLAY" city="Paris" postal="75056" country="FR" featured="true" features=""/><marker name="MINISTERE DE L ECONOMIE ET DES FINANCES (CENTRE D ACTIVITES SPORTIVES ET CULTURELLES )" lat="48.84125000" lng="2.37727000" category="Salle de musculation" address="143, RUE DE BERCY" city="Paris" postal="75056" country="FR" featured="true" features=""/><marker name="MINISTERE DE L ECONOMIE ET DES FINANCES (CENTRE D ACTIVITES SPORTIVES ET CULTURELLES )" lat="48.84125000" lng="2.37727000" category="Salle de musculation" address="143, RUE DE BERCY" city="Paris" postal="75056" country="FR" featured="true" features=""/><marker name="WAOU CLUB MED GYM AUTEUIL" lat="48.84680000" lng="2.25956000" category="Salle de musculation" address="11, RUE CHANEZ" city="Paris" postal="75056" country="FR" featured="true" features=""/><marker name="WAOU CLUB MED GYM AUTEUIL" lat="48.84680000" lng="2.25956000" category="Salle de musculation" address="11, RUE CHANEZ" city="Paris" postal="75056" country="FR" featured="true" features=""/><marker name="CERCLE DE LA FORME MAILLOT" lat="48.88070000" lng="2.29016000" category="Salle de musculation" address="20, RUE GUERSANT" city="Paris" postal="75056" country="FR" featured="true" features=""/><marker name="ENJOY BY FKC" lat="48.89280000" lng="2.38049000" category="Salle de musculation" address="36, RUE DE NANTES" city="Paris" postal="75056" country="FR" featured="true" features=""/><marker name="REM GYM" lat="48.87730000" lng="2.40344000" category="Salle de musculation" address="72, RUE DE ROMAINVILLE" city="Paris" postal="75056" country="FR" featured="true" features=""/><marker name="GYM STUDIO" lat="48.87120000" lng="2.39555000" category="Salle de musculation" address="9, RUE PIXERECOURT" city="Paris" postal="75056" country="FR" featured="true" features=""/><marker name="CLUB MED GYM MAILLOT" lat="48.87796940" lng="2.28545930" category="Salle de musculation" address="17, RUE DU DEBARCADERE" city="Paris" postal="75056" country="FR" featured="true" features=""/><marker name="FOREST HILL AQUABOULEVARD" lat="48.83290000" lng="2.27705000" category="Salle de musculation" address="4, RUE LOUIS ARMAND" city="Paris" postal="75056" country="FR" featured="true" features=""/><marker name="LADY FITNESS 15éme arrondissement" lat="48.84140000" lng="2.30497000" category="Salle de musculation" address="16, rue borromée" city="Paris" postal="75056" country="FR" featured="true" features=""/><marker name="FITNESS FIRST" lat="48.85610000" lng="2.27108000" category="Salle de musculation" address="58, RUE LA FONTAINE" city="Paris" postal="75056" country="FR" featured="true" features=""/><marker name="CLUB MED GYM MONCEAU" lat="48.88070000" lng="2.30589000" category="Salle de musculation" address="26, RUE CHAZELLES" city="Paris" postal="75056" country="FR" featured="true" features=""/><marker name="CLUB SPORTIF ET DES LOISIRS NOUVELLE France (CASERNE NOUVELLE France )" lat="48.87690000" lng="2.34903000" category="Salle de musculation" address="82, RUE DU FAUBOURG POISSONNIERE" city="Paris" postal="75056" country="FR" featured="true" features=""/><marker name="CITE SCOLAIRE VOLTAIRE" lat="48.86401000" lng="2.38474000" category="Salle de musculation" address="101, AVENUE DE LA REPUBLIQUE" city="Paris" postal="75056" country="FR" featured="true" features=""/><marker name="AMBROISE PHYSIQUE" lat="48.86044000" lng="2.37499000" category="Salle de musculation" address="82, BOULEVARD VOLTAIRE" city="Paris" postal="75056" country="FR" featured="true" features=""/><marker name="CLUB MED GYM PALAIS ROYAL" lat="48.86219000" lng="2.33877000" category="Salle de musculation" address="147 bis, RUE SAINT HONORE" city="Paris" postal="75056" country="FR" featured="true" features=""/><marker name="UNIVERS GYM PARIS" lat="48.86347000" lng="2.33860000" category="Salle de musculation" address="20-22, RUE DES BONS ENFANTS" city="Paris" postal="75056" country="FR" featured="true" features=""/><marker name="ASSOCIATION SPORTIVE DE LA BANQUE DE FRANCE" lat="48.86763000" lng="2.33481000" category="Salle de musculation" address="4, RUE MARSOLLIER" city="Paris" postal="75056" country="FR" featured="true" features=""/><marker name="SUN CITY" lat="48.86384000" lng="2.35138000" category="Salle de musculation" address="62, BOULEVARD DE SEBASTOPOL" city="Paris" postal="75056" country="FR" featured="true" features=""/><marker name="SUN CITY" lat="48.86384000" lng="2.35138000" category="Salle de musculation" address="62, BOULEVARD DE SEBASTOPOL" city="Paris" postal="75056" country="FR" featured="true" features=""/><marker name="LYCEE HENRI IV" lat="48.84602000" lng="2.34817000" category="Salle de musculation" address="23, RUE CLOVIS" city="Paris" postal="75056" country="FR" featured="true" features=""/><marker name="AUTOMOBILE CLUB DE France (ACF)" lat="48.86715000" lng="2.32140000" category="Salle de musculation" address="6, PLACE DE LA CONCORDE" city="Paris" postal="75056" country="FR" featured="true" features=""/><marker name="HOTEL PLAZA ATHENE" lat="48.86595000" lng="2.30405000" category="Salle de musculation" address="25, AVENUE DE MONTAIGNE" city="Paris" postal="75056" country="FR" featured="true" features=""/><marker name="CERCLE DE L UNION INTERALLIEES" lat="48.86900000" lng="2.31967000" category="Salle de musculation" address="33, RUE DU FAUBOURG ST HONORE" city="Paris" postal="75056" country="FR" featured="true" features=""/><marker name="CLUB MED GYM CHAMPS ELYSEES" lat="48.87342000" lng="2.30609000" category="Salle de musculation" address="26, RUE DE BERRI" city="Paris" postal="75056" country="FR" featured="true" features=""/><marker name="CERCLE DE L UNION INTERALLIEES" lat="48.86900000" lng="2.31967000" category="Salle de musculation" address="33, RUE DU FAUBOURG ST HONORE" city="Paris" postal="75056" country="FR" featured="true" features=""/><marker name="LES BAINS DE LEA" lat="48.86938000" lng="2.30384000" category="Salle de musculation" address="62, PIERRE CHARON" city="Paris" postal="75056" country="FR" featured="true" features=""/><marker name="ECOLE BERNARD PARISET" lat="48.87771000" lng="2.33939000" category="Salle de musculation" address="11, RUE DES MARTYRS" city="Paris" postal="75056" country="FR" featured="true" features=""/><marker name="SALLE SAINT LAZARE" lat="48.87581000" lng="2.32805000" category="Salle de musculation" address="94, RUE SAINT LAZARE" city="Paris" postal="75056" country="FR" featured="true" features=""/><marker name="SNCF" lat="48.87727000" lng="2.32807000" category="Salle de musculation" address="23, RUE DE LONDRES" city="Paris" postal="75056" country="FR" featured="true" features=""/><marker name="SALLE SAINT LAZARE" lat="48.87581000" lng="2.32805000" category="Salle de musculation" address="94, RUE SAINT LAZARE" city="Paris" postal="75056" country="FR" featured="true" features=""/><marker name="CLUB MED GYM VAUGIRARD" lat="48.84110000" lng="2.30678000" category="Salle de musculation" address="208, RUE VAUGIRARD" city="Paris" postal="75056" country="FR" featured="true" features=""/><marker name="CLUB MED GYM VAUGIRARD" lat="48.84110000" lng="2.30678000" category="Salle de musculation" address="208, RUE VAUGIRARD" city="Paris" postal="75056" country="FR" featured="true" features=""/><marker name="CENTRE DE JEUNESSE CHRETIENNE ET FAMILIALE" lat="48.84240000" lng="2.30778000" category="Salle de musculation" address="116, RUE DE LOURMEL" city="Paris" postal="75056" country="FR" featured="true" features=""/><marker name="Lagardere Paris Racing" lat="48.86500000" lng="2.25663000" category="Salle de musculation" address="1, CHEMIN DE LA CROIX CATELAN" city="Paris" postal="75056" country="FR" featured="true" features=""/><marker name="PLURIAL SPORT 1" lat="48.88490000" lng="2.32394000" category="Salle de musculation" address="6, RUE ABEL TRUCHET" city="Paris" postal="75056" country="FR" featured="true" features=""/><marker name="CERCLE DE LA FORME ORNANO" lat="48.89650000" lng="2.34651000" category="Salle de musculation" address="127, RUE DU MONT CENIS" city="Paris" postal="75056" country="FR" featured="true" features=""/><marker name="CLUB MONTMARTOIS 1" lat="48.89200000" lng="2.34749000" category="Salle de musculation" address="60, RUE ORDENER" city="Paris" postal="75056" country="FR" featured="true" features=""/><marker name="PARIS TONIC" lat="48.88660000" lng="2.34753000" category="Salle de musculation" address="45, RUE DE CLIGNANCOURT" city="Paris" postal="75056" country="FR" featured="true" features=""/><marker name="SUN CITY SPORT" lat="48.89330000" lng="2.32763000" category="Salle de musculation" address="90, AVENUE DE SAINT OUEN" city="Paris" postal="75056" country="FR" featured="true" features=""/><marker name="KARATE CLUB KYOKUSHINKAI" lat="48.89200000" lng="2.33678000" category="Salle de musculation" address="8, RUE ACHILLE MARTINET" city="Paris" postal="75056" country="FR" featured="true" features=""/><marker name="LYCEE PROFESSIONNEL ET TECHNOLOGIQUE SAINTE THERESE" lat="48.85200000" lng="2.27035000" category="Salle de musculation" address="40, RUE LA FONTAINE" city="Paris" postal="75056" country="FR" featured="true" features=""/><marker name="UNIVERSITE PARIS DAUPHINE" lat="48.87090000" lng="2.27419000" category="Salle de musculation" address="1, PLACE DU MARECHAL DE LATTRE DE TASSIGNY" city="Paris" postal="75056" country="FR" featured="true" features=""/><marker name="HOPITAL BROUSSAIS" lat="48.82750000" lng="2.31427000" category="Salle de musculation" address="96, RUE DIDOT" city="Paris" postal="75056" country="FR" featured="true" features=""/><marker name="CLUB MED GYM PALAIS ROYAL" lat="48.86219000" lng="2.33877000" category="Salle de musculation" address="147 bis, RUE SAINT HONORE" city="Paris" postal="75056" country="FR" featured="true" features=""/><marker name="ELEMENT PARIS 1ER" lat="48.86580000" lng="2.33699000" category="Salle de musculation" address="41, RUE DE RICHELIEU" city="Paris" postal="75056" country="FR" featured="true" features=""/><marker name="BNP PARIBAS" lat="48.86824000" lng="2.33196000" category="Salle de musculation" address="3, RUE LOUIS LE GRAND" city="Paris" postal="75056" country="FR" featured="true" features=""/><marker name="FITNESS CLUB BOURSE" lat="48.86991000" lng="2.34038000" category="Salle de musculation" address="24, RUE FEYDEAU" city="Paris" postal="75056" country="FR" featured="true" features=""/><marker name="L USINE" lat="48.86931000" lng="2.33453000" category="Salle de musculation" address="8, rue de la Michodiere" city="Paris" postal="75056" country="FR" featured="true" features=""/><marker name="VIT HALLES BEAUBOURG" lat="48.86154000" lng="2.35261000" category="Salle de musculation" address="48, RUE RAMBUTEAU" city="Paris" postal="75056" country="FR" featured="true" features=""/><marker name="ECOLE NORMALE SUPERIEURE (rue d ulm)" lat="48.84172000" lng="2.34535000" category="Salle de musculation" address="45, RUE D'ULM" city="Paris" postal="75056" country="FR" featured="true" features=""/><marker name="CLUB JEAN DE BEAUVAIS" lat="48.84928000" lng="2.34628000" category="Salle de musculation" address="5, RUE JEAN DE BEAUVAIS" city="Paris" postal="75056" country="FR" featured="true" features=""/><marker name="CLUB JEAN DE BEAUVAIS" lat="48.84928000" lng="2.34628000" category="Salle de musculation" address="5, RUE JEAN DE BEAUVAIS" city="Paris" postal="75056" country="FR" featured="true" features=""/><marker name="CENTRE D ANIMATION CHÂTEAU LANDON" lat="48.88327000" lng="2.36396000" category="Salle de musculation" address="46, RUE DU CHÂTEAU LANDON" city="Paris" postal="75056" country="FR" featured="true" features=""/><marker name="CLUB LAFAYETTE" lat="48.87713000" lng="2.35239000" category="Salle de musculation" address="27, RUE DES PETITS HOTELS" city="Paris" postal="75056" country="FR" featured="true" features=""/><marker name="CLUB MED GYM PARIS 20EME" lat="48.85740000" lng="2.39914000" category="Salle de musculation" address="63, RUE DE BAGNOLET" city="Paris" postal="75056" country="FR" featured="true" features=""/><marker name="SALLE DE SPORT ASPTT" lat="48.83810800" lng="2.30253600" category="Salle de musculation" address="15, RUE BOURSEUL" city="Paris" postal="75056" country="FR" featured="true" features=""/><marker name="TRAINING - CLUB DE MISE EN FORME" lat="48.84340000" lng="2.30555000" category="Salle de musculation" address="76, RUE LECOURBE" city="Paris" postal="75056" country="FR" featured="true" features=""/><marker name="LE CLUB" lat="48.85130000" lng="2.28327000" category="Salle de musculation" address="61, QUAI DE GRENELLE" city="Paris" postal="75056" country="FR" featured="true" features=""/><marker name="SALLE SAINT LAZARE" lat="48.87581000" lng="2.32805000" category="Salle de musculation" address="94, RUE SAINT LAZARE" city="Paris" postal="75056" country="FR" featured="true" features=""/><marker name="SALLE SAINT LAZARE" lat="48.87581000" lng="2.32805000" category="Salle de musculation" address="94, RUE SAINT LAZARE" city="Paris" postal="75056" country="FR" featured="true" features=""/><marker name="CLUB MED GYM LAFAYETTE" lat="48.87506000" lng="2.34029000" category="Salle de musculation" address="10, RUE DE LA VICTOIRE" city="Paris" postal="75056" country="FR" featured="true" features=""/><marker name="SALLE SAINT LAZARE" lat="48.87581000" lng="2.32805000" category="Salle de musculation" address="94, RUE SAINT LAZARE" city="Paris" postal="75056" country="FR" featured="true" features=""/><marker name="SALLES DE SPORTS TOUR D AUVERGNE" lat="48.87926000" lng="2.34412000" category="Salle de musculation" address="15 bis, RUE DE LA TOUR D'AUVERGNE" city="Paris" postal="75056" country="FR" featured="true" features=""/><marker name="HOPITAL SAINT LOUIS" lat="48.87280000" lng="2.36840000" category="Salle de musculation" address="1, AVENUE CLAUDE VELLEFAU" city="Paris" postal="75056" country="FR" featured="true" features=""/><marker name="ASSOCIATION KAJYN CLUB" lat="48.85171000" lng="2.38338000" category="Salle de musculation" address="13, RUE FAIDHERBE" city="Paris" postal="75056" country="FR" featured="true" features=""/><marker name="AMBROISE PHYSIQUE" lat="48.86044000" lng="2.37499000" category="Salle de musculation" address="82, BOULEVARD VOLTAIRE" city="Paris" postal="75056" country="FR" featured="true" features=""/><marker name="BODY GYM" lat="48.85070000" lng="2.37948000" category="Salle de musculation" address="157, RUE DU FAUBOURG SAINT ANTOINE" city="Paris" postal="75056" country="FR" featured="true" features=""/><marker name="HOTEL IBIS - CLUB AQUAVIVA" lat="48.89200000" lng="2.31627000" category="Salle de musculation" address="5, IMPASSE CHALABRE" city="Paris" postal="75056" country="FR" featured="true" features=""/><marker name="HOTEL IBIS - CLUB AQUAVIVA" lat="48.89200000" lng="2.31627000" category="Salle de musculation" address="5, IMPASSE CHALABRE" city="Paris" postal="75056" country="FR" featured="true" features=""/><marker name="CLUB MED GYM MONCEAU" lat="48.88070000" lng="2.30589000" category="Salle de musculation" address="26, RUE CHAZELLES" city="Paris" postal="75056" country="FR" featured="true" features=""/><marker name="ASSOCIATION SPORTIVE ET CULTURELLE DE L ASSEMBLEE NATIONALE" lat="48.86162000" lng="2.31853000" category="Salle de musculation" address="126, RUE DE L'UNIVERSITE" city="Paris" postal="75056" country="FR" featured="true" features=""/><marker name="LYCEE DE LA ROCHEFOUCAULT" lat="48.86019000" lng="2.30515000" category="Salle de musculation" address="22, RUE MALAR" city="Paris" postal="75056" country="FR" featured="true" features=""/><marker name="AUTOMOBILE CLUB DE France (ACF)" lat="48.86715000" lng="2.32140000" category="Salle de musculation" address="6, PLACE DE LA CONCORDE" city="Paris" postal="75056" country="FR" featured="true" features=""/><marker name="HOTEL LA TREMOILLE" lat="48.86686000" lng="2.30302000" category="Salle de musculation" address="14, RUE DE LA TREMOILLE" city="Paris" postal="75056" country="FR" featured="true" features=""/><marker name="SALLE DES SPORTS DU MINISTERE DE L INTERIEUR" lat="48.87133000" lng="2.31776000" category="Salle de musculation" address="11, RUE DES SAUSSAIES" city="Paris" postal="75056" country="FR" featured="true" features=""/><marker name="LES BAINS DE LEA" lat="48.86938000" lng="2.30384000" category="Salle de musculation" address="62, PIERRE CHARON" city="Paris" postal="75056" country="FR" featured="true" features=""/><marker name="CITE INTERNATIONALE UNIVERSITAIRE DE PARIS" lat="48.81928000" lng="2.33806000" category="Salle de musculation" address="19, BOULEVARD JOURDAN" city="Paris" postal="75056" country="FR" featured="true" features=""/><marker name="CAISSE DES DEPOTS - USAC" lat="48.84148000" lng="2.32026000" category="Salle de musculation" address="4, PLACE RAOUL DAUTRY" city="Paris" postal="75056" country="FR" featured="true" features=""/><marker name="CLUB ENERGYM" lat="48.83496000" lng="2.32892000" category="Salle de musculation" address="6, RUE LALANDE" city="Paris" postal="75056" country="FR" featured="true" features=""/><marker name="VIT HALLES RASPAIL" lat="48.83958000" lng="2.33023000